Full_Address,Address_Lat,Address_Lng
"6500 El Camino Del Teatro, La Jolla, CA 92037, USA",32.8301963,-117.262811
"500 Rosecrans St, San Diego, CA 92106, USA",32.7114312,-117.2380879
"Palm Ave, San Diego, CA 92123, USA",32.8024925,-117.1405524
"3100 Logan Ave, San Diego, CA 92113, USA",32.6969918,-117.1272782
"6200 Division St, San Diego, CA 92114, USA",32.695031,-117.0646369
"4100 Gesner St, San Diego, CA 92117, USA",32.791904,-117.2053248
"Clairemont Dr, San Diego, CA, USA",32.8117985,-117.2009211
"700 11th Ave, San Diego, CA 92101, USA",32.7126032,-117.1546784
"1800 Via Los Tonadas, San Diego, CA 92173, USA",32.563187,-117.057632
"4300 Fairmount Ave, San Diego, CA 92116, USA",32.7554092,-117.1011396
"3000 Coronado Ave, San Diego, CA 92154, USA",32.5769436,-117.0687071
"2000 Abbott St, San Diego, CA 92107, USA",32.7496535,-117.2513402
"3500 Ocean Front Walk, San Diego, CA 92109, USA",32.7782846,-117.2532281
"518 Third Ave, San Diego, CA 92101, USA",32.7107902,-117.1620953
"12300 Carmel Country Rd, San Diego, CA 92130, USA",32.9471254,-117.2268884
"3878 Dalbergia Ct, San Diego, CA 92113, USA",32.68341,-117.110781
"1000 F St, San Diego, CA 92101, USA",32.7136316,-117.1555807
"4700 Convoy St, San Diego, CA 92111, USA",32.8267982,-117.1543743
"1300 Mar Reef Cove, San Diego, CA 92154, USA",32.5711116,-117.0120468
"8300 Navajo Rd, San Diego, CA 92119, USA",32.8031046,-117.0106066
"7400 La Jolla Blvd, La Jolla, CA 92037, USA",32.8374715,-117.2782418
"1200 Benicia St, San Diego, CA 92110, USA",32.7666886,-117.1918122
"6800 Carmel Valley Rd, San Diego, CA 92130, USA",32.9697091,-117.1755821
"600 Market St, San Diego, CA 92101, USA",32.7115391,-117.1592068
"4400 Boston Ave, San Diego, CA 92113, USA",32.6932339,-117.1001347
"7500 Deville Dr, San Diego, CA 92114, USA",32.7206901,-117.0382999
"2900 Alta View Dr, San Diego, CA 92139, USA",32.6758738,-117.0401937
"4600 Morena Blvd, San Diego, CA 92117, USA",32.8231083,-117.2280005
"Miguel Vista Pl, San Diego, CA 92114, USA",32.7020541,-117.0216916
"1900 Quivira Way, San Diego, CA 92109, USA",32.7600288,-117.2332697
"500 Euclid Ave, San Diego, CA 92114, USA",32.7104808,-117.0851205
"4900 Canterbury Dr, San Diego, CA 92116, USA",32.7675196,-117.1089368
"2200 Alta View Dr, San Diego, CA 92139, USA",32.6823281,-117.0484608
"2400 Cushing Rd, San Diego, CA 92106, USA",32.7358302,-117.2132788
"3100 Pershing Dr, San Diego, CA 92102, USA",32.737383,-117.1343982
"7900 Caminito Santaluz W, San Diego, CA 92127, USA",32.9863317,-117.1541548
"2900 Hartford Ct, San Diego, CA 92117, USA",32.7922426,-117.1989015
"5300 Streamview Dr, San Diego, CA 92105, USA",32.7440899,-117.0820011
"4500 Kearny Villa Rd, San Diego, CA 92123, USA",32.8233622,-117.144307
"5800 Copley Dr, San Diego, CA 92111, USA",32.8415486,-117.1716496
"3400 Rosecrans St, San Diego, CA 92110, USA",32.7493542,-117.2065976
"4500 La Jolla Village Dr, San Diego, CA 92122, USA",32.8740937,-117.2094229
"4400 W Point Loma Blvd, San Diego, CA 92107, USA",32.7524457,-117.2308802
"10200 Scripps Poway Pkwy, San Diego, CA 92131, USA",32.9364613,-117.110508
"8400 Genesee Ave, San Diego, CA 92122, USA",32.8673729,-117.2138611
"5100 Convoy St, San Diego, CA 92111, USA",32.8345304,-117.1528753
"1200 Sunset Cliffs Blvd, San Diego, CA 92107, USA",32.7325193,-117.2559617
"4000 30th St, San Diego, CA 92104, USA",32.7503433,-117.1301643
"11300 Carmel Mountain Rd, San Diego, CA 92128, USA",32.9789085,-117.0853114
"2800 54th St, San Diego, CA 92105, USA",32.7348653,-117.0797262
"3100 Sports Arena Blvd, San Diego, CA 92110, USA",32.7519338,-117.2053239
"4300 Eastgate Mall, San Diego, CA 92121, USA",32.8781719,-117.2118152
"3900 Utah St, San Diego, CA 92104, USA",32.7485395,-117.1329713
"9700 Caminito Cuadro, San Diego, CA 92129, USA",32.9611755,-117.1167501
"12100 Rancho Bernardo Rd, San Diego, CA 92128, USA",33.0221865,-117.0685582
"3100 Ash St, San Diego, CA 92102, USA",32.7202357,-117.1274827
"3700 Shiloh Rd, San Diego, CA 92105, USA",32.7467152,-117.0815303
"600 A St, San Diego, CA 92101, USA",32.7188538,-117.1592903
"9300 Miramar Rd, San Diego, CA 92126, USA",32.893823,-117.1270269
"8800 Mira Mesa Blvd, San Diego, CA 92126, USA",32.9132927,-117.134542
"6800 El Cajon Blvd, San Diego, CA 92115, USA",32.7686782,-117.0514763
"Hamilton St, San Diego, CA, USA",32.7572716,-117.1363689
"9800 Aero Dr, San Diego, CA 92123, USA",32.8092986,-117.1176775
"11300 Sorrento Valley Rd, San Diego, CA 92121, USA",32.9079167,-117.2287078
"600 Pennsylvania Ave, San Diego, CA 92103, USA",32.7451388,-117.1595417
"7200 Mohawk St, San Diego, CA 92115, USA",32.76985020000001,-117.0426524
"4230 El Cajon Blvd, San Diego, CA 92105, USA",32.7553657,-117.1038673
"5300 Balboa Ave, San Diego, CA 92117, USA",32.8196556,-117.1825983
"1200 Garnet Ave, San Diego, CA 92109, USA",32.7985546,-117.2480918
"7700 Jackson Dr, San Diego, CA 92119, USA",32.806621,-117.0486622
"2800 Via De La Valle, Del Mar, CA 92014, USA",32.9811414,-117.2475247
"8600 Glenhaven St, San Diego, CA 92123, USA",32.8057965,-117.1425258
"6100 Balboa Ave, San Diego, CA 92111, USA",32.8203967,-117.1760625
"8500 Aero Dr, San Diego, CA 92123, USA",32.8097163,-117.1444965
"4200 49th St, San Diego, CA 92115, USA",32.7531051,-117.0890537
"1300 S 28th St, San Diego, CA 92113, USA",32.6927889,-117.1337946
"800 W Grape St, San Diego, CA 92101, USA",32.7253068,-117.1699741
"10300 Friars Rd, San Diego, CA 92120, USA",32.7910835,-117.1014638
"8900 Twin Trails Dr, San Diego, CA 92129, USA",32.961855,-117.134039
"6200 Carmel Valley Rd, San Diego, CA 92130, USA",32.9650633,-117.1854688
"7600 Linda Vista Rd, San Diego, CA 92111, USA",32.800933,-117.1581875
"5400 Imperial Ave, San Diego, CA 92114, USA",32.7070865,-117.0787924
"1400 Garnet Ave, San Diego, CA 92109, USA",32.7991845,-117.2444118
"Brooklyn Ave, San Diego, CA 92114, USA",32.7131453,-117.0598748
"3700 Voltaire St, San Diego, CA 92107, USA",32.7401125,-117.2289768
"4200 50th St, San Diego, CA 92115, USA",32.7530871,-117.0869014
"8000 Girard Ave, La Jolla, CA 92037, USA",32.8479377,-117.2742971
"1300 Tenth Ave, San Diego, CA 92101, USA",32.7188864,-117.1556631
"4600 Seminole Dr, San Diego, CA 92115, USA",32.7606247,-117.0611821
"4000 Beyer Blvd, San Diego, CA 92173, USA",32.5584324,-117.0480235
"1000 W Briarfield Dr, San Diego, CA 92109, USA",32.7915752,-117.2499857
"6600 Mission Gorge Rd, San Diego, CA 92120, USA",32.7929621,-117.0976147
"Friars Rd, San Diego, CA, USA",32.7747497,-117.1538667
"9800 Carroll Canyon Rd, San Diego, CA 92131, USA",32.9043578,-117.1146682
"Bernardo Center Dr, San Diego, CA, USA",33.0108171,-117.0858117
"3200 University Ave, San Diego, CA 92104, USA",32.748638,-117.1249733
"900 F St, San Diego, CA 92101, USA",32.713837,-117.156075
"7600 Carroll Rd, San Diego, CA 92121, USA",32.8852803,-117.1575417
"2100 Imperial Ave, San Diego, CA 92102, USA",32.7062866,-117.1448991
"1100 W Morena Blvd, San Diego, CA 92110, USA",32.7672006,-117.2001285
"4000 University Ave, San Diego, CA 92105, USA",32.7497451,-117.1093008
"18400 W Bernardo Dr, San Diego, CA 92127, USA",33.0463021,-117.0736773
"4500 Viewridge Ave, San Diego, CA 92123, USA",32.8225493,-117.1250963
"7600 Fay Ave, La Jolla, CA 92037, USA",32.841966,-117.2747193
"I-15, San Diego, CA, USA",32.7083834,-117.1201054
"6300 Miramar Rd, San Diego, CA 92121, USA",32.8781719,-117.1786781
"8200 Gilman Dr, La Jolla, CA 92093, USA",32.8775777,-117.2337461
"8400 Mira Mesa Blvd, San Diego, CA 92126, USA",32.9130653,-117.1428028
"4400 El Cajon Blvd, San Diego, CA 92115, USA",32.7552984,-117.1001757
"2000 Camino Del Este, San Diego, CA 92108, USA",32.770943,-117.1442072
"4000 32nd St, San Diego, CA 92104, USA",32.75038,-117.1252491
"12600 Del Vino Ct, San Diego, CA 92130, USA",32.9445493,-117.1833183
"1000 University Ave, San Diego, CA 92103, USA",32.7484901,-117.1551906
"2500 A St, San Diego, CA 92102, USA",32.7189487,-117.1403095
"9900 Reagan Rd, San Diego, CA 92126, USA",32.9091774,-117.1471338
"2200 Ocean View Blvd, San Diego, CA 92113, USA",32.7021329,-117.1353225
"4400 W Point Loma Blvd, San Diego, CA 92107, USA",32.7524457,-117.2308802
"4000 Euclid Ave, San Diego, CA 92105, USA",32.7495691,-117.0924988
"3000 Market St, San Diego, CA 92102, USA",32.7116548,-117.1302053
"W Hawthorn St, San Diego, CA 92101, USA",32.7265792,-117.1687879
"200 S 31st St, San Diego, CA 92113, USA",32.7043266,-117.1273518
"4800 El Cajon Blvd, San Diego, CA 92115, USA",32.7561975,-117.0911422
"12500 Oaks N Dr, San Diego, CA 92128, USA",33.0330897,-117.0598999
"8600 Villa La Jolla Dr, La Jolla, CA 92037, USA",32.8648151,-117.2351865
"Convoy St, San Diego, CA 92111, USA",32.8267594,-117.1542287
"11200 Del Diablo St, San Diego, CA 92129, USA",32.9835673,-117.0898423
"2000 Camino Del Rio N, San Diego, CA 92108, USA",32.7701911,-117.1426887
"4000 Genesee Ave, San Diego, CA 92111, USA",32.8157735,-117.1801612
"4700 El Cajon Blvd, San Diego, CA 92115, USA",32.7559604,-117.0929375
"4000 Cottonwood St, San Diego, CA 92113, USA",32.685055,-117.107697
"3000 Logan Ave, San Diego, CA 92113, USA",32.6970016,-117.1294594
"3300 Florida Dr, San Diego, CA 92103, USA",32.7397881,-117.1437069
"3200 University Ave, San Diego, CA 92104, USA",32.748638,-117.1249733
"4900 Coronado Ave, San Diego, CA 92107, USA",32.7415761,-117.2529753
"2200 Bacon St, San Diego, CA 92107, USA",32.7520474,-117.246619
"3200 El Cajon Blvd, San Diego, CA 92104, USA",32.7554146,-117.1257773
"2700 El Cajon Blvd, San Diego, CA 92104, USA",32.755384,-117.1351374
"4000 Texas St, San Diego, CA 92104, USA",32.7504303,-117.1388119
"11th Ave, San Diego, CA, USA",32.7128957,-117.1546761
"13700 Old El Camino Real, San Diego, CA 92130, USA",32.966956,-117.231897
"8500 Golden Ridge Rd, Lakeside, CA 92040, USA",32.8297496,-116.9365123
"1200 Manzana Way, San Diego, CA 92139, USA",32.6904059,-117.0251481
"600 Picador Blvd, San Diego, CA 92154, USA",32.5819054,-117.0614477
"600 Saturn Blvd, San Diego, CA 92154, USA",32.5858042,-117.0926944
"300 W Laurel St, San Diego, CA 92101, USA",32.7313641,-117.1657557
"1400 Pacific Beach Dr, San Diego, CA 92109, USA",32.793358,-117.242813
"10400 Friars Rd, San Diego, CA 92120, USA",32.7906119,-117.0995984
"3700 Swift Ave, San Diego, CA 92104, USA",32.7463227,-117.1195902
"3800 35th St, San Diego, CA 92104, USA",32.7478975,-117.118099
"4900 Waring Rd, San Diego, CA 92120, USA",32.7825294,-117.08713
"4200 Menlo Ave, San Diego, CA 92115, USA",32.753155,-117.0943973
"10200 Black Mountain Rd, San Diego, CA 92126, USA",32.9027456,-117.1241047
"1000 Myrtle Way, San Diego, CA 92103, USA",32.7415995,-117.1533859
"2800 Garnet Ave, San Diego, CA 92109, USA",32.8061675,-117.2189142
"4000 San Juan Rd, San Diego, CA 92103, USA",32.7510939,-117.1907158
"4000 La Jolla Village Dr, La Jolla, CA 92037, USA",32.871106,-117.220325
"Frontera Internacional, San Diego, CA, United States",32.5511126,-116.9267478
"300 47th St, San Diego, CA 92102, USA",32.7074147,-117.0936481
"6700 Balboa Ave, San Diego, CA 92117, USA",32.820616,-117.1700309
"16900 Pomerado Rd, San Diego, CA 92128, USA",33.0186411,-117.0609958
"8600 Jade Coast Dr, San Diego, CA 92126, USA",32.90244,-117.1382694
"4000 Twiggs St, San Diego, CA 92110, USA",32.7533543,-117.195849
"4900 Marlborough Dr, San Diego, CA 92116, USA",32.7667594,-117.1062845
"7000 Navajo Rd, San Diego, CA 92119, USA",32.803977,-117.0460172
"8400 Cam Santa Fe, San Diego, CA 92127, USA",33.0330208,-117.1237446
"2200 Torrey Pines Ln, La Jolla, CA 92037, USA",32.8501729,-117.2536347
"4600 Mission Blvd, San Diego, CA 92109, USA",32.797378,-117.2559917
"2500 G St, San Diego, CA 92102, USA",32.7126819,-117.1402562
"5400 Balboa Ave, San Diego, CA 92117, USA",32.81941380000001,-117.1818713
"6900 Miramar Rd, San Diego, CA 92121, USA",32.8786463,-117.1680155
"3500 Lebon Dr, San Diego, CA 92122, USA",32.8688576,-117.2249336
"5800 University Ave, San Diego, CA 92115, USA",32.7492955,-117.0729412
"S 31st St, San Diego, CA 92113, USA",32.699626,-117.1273412
"400 Elm St, San Diego, CA 92101, USA",32.724075,-117.1611481
"2100 Cable St, San Diego, CA 92107, USA",32.7491779,-117.2464466
"16100 Bernardo Center Dr, San Diego, CA 92127, USA",33.008182,-117.0888085
"3800 Chamoune Ave, San Diego, CA 92105, USA",32.7477308,-117.0966072
"1800 Carol St, San Diego, CA 92154, USA",32.5870351,-117.0955198
"3800 31st St, San Diego, CA 92104, USA",32.7475529,-117.1273615
"9300 Mira Mesa Blvd, San Diego, CA 92126, USA",32.9172417,-117.1247601
"Hillside Dr, San Diego, CA 92037, USA",32.8445141,-117.2559069
"200 Euclid Ave, San Diego, CA 92114, USA",32.7059215,-117.0850749
"1000 Lincoln Ave, San Diego, CA 92103, USA",32.7522205,-117.1552121
"5400 Montezuma Rd, San Diego, CA 92115, USA",32.7710073,-117.0787915
"12300 Carmel Mountain Rd, San Diego, CA 92128, USA",32.9871368,-117.0756713
"1600 F St, San Diego, CA 92101, USA",32.7136686,-117.1494757
"11700 Carmel Mountain Rd, San Diego, CA 92128, USA",32.980523,-117.0799529
"4400 Genesee Ave, San Diego, CA 92117, USA",32.8231378,-117.184624
"1200 11th Ave, San Diego, CA 92101, USA",32.7178395,-117.1547363
"3900 Townsgate Dr, San Diego, CA 92130, USA",32.9517167,-117.2313259
"12500 Oaks N Dr, San Diego, CA 92128, USA",33.0330897,-117.0598999
"S 28th St, San Diego, CA, USA",32.6982843,-117.1338311
"400 S 30th St, San Diego, CA 92113, USA",32.7022255,-117.1294815
"1800 Palm Ave, San Diego, CA 92154, USA",32.5839078,-117.0948504
"4300 Orange Ave, San Diego, CA 92105, USA",32.7531916,-117.1019355
"4500 Riviera Shores St, San Diego, CA 92154, USA",32.5729003,-117.0375689
"9800 Genesee Ave, La Jolla, CA 92037, USA",32.8808306,-117.2182131
"Comerica Bank Building, 600 B St, San Diego, CA 92101, USA",32.718147,-117.1585979
"3700 Clairemont Dr, San Diego, CA 92117, USA",32.8082595,-117.201512
"2200 Paseo De Las Americas, San Diego, CA 92154, USA",32.55860080000001,-116.9360601
"5400 University Ave, San Diego, CA 92105, USA",32.7488508,-117.0793745
"1300 47th St, San Diego, CA 92102, USA",32.7186585,-117.0935586
"50 15th St, San Diego, CA 92101, USA",32.7059075,-117.1503471
"6200 College Ave, San Diego, CA 92120, USA",32.7893609,-117.0657348
"1400 Market St, San Diego, CA 92101, USA",32.711562,-117.1519318
"3900 Del Mar Heights Rd, San Diego, CA 92130, USA",32.9563421,-117.2230601
"3900 Orange Ave, San Diego, CA 92105, USA",32.7532515,-117.1106005
"8200 Jamacha Rd, San Diego, CA 92114, USA",32.7164111,-117.0294955
"9400 Clairemont Mesa Blvd, San Diego, CA 92123, USA",32.8315131,-117.1266872
"10000 Friars Rd, San Diego, CA 92124, USA",32.7888528,-117.1116335
"13000 Paseo Lucido, San Diego, CA 92128, USA",32.9968565,-117.0677751
"10700 Black Mountain Rd, San Diego, CA 92126, USA",32.9136738,-117.1245749
"5400 Mt Alifan Dr, San Diego, CA 92111, USA",32.8172806,-117.1807777
"9100 Ruffin Rd, San Diego, CA 92123, USA",32.8396599,-117.1277491
"2300 Fort Stockton Dr, San Diego, CA 92103, USA",32.7555273,-117.1869153
"Quince Dr, San Diego, CA 92103, USA",32.7366535,-117.1589209
"Fairmount Ave, San Diego, CA, USA",32.7564526,-117.1008201
"2400 Grove Ave, San Diego, CA 92154, USA",32.5730431,-117.0825111
"9700 Genesee Ave, La Jolla, CA 92037, USA",32.8799329,-117.2167091
"600 University Ave, San Diego, CA 92103, USA",32.7485038,-117.1593715
"2800 Garnet Ave, San Diego, CA 92109, USA",32.8061675,-117.2189142
"6000 Parkside Ave, San Diego, CA 92139, USA",32.6662021,-117.0573643
"6500 El Cajon Blvd, San Diego, CA 92115, USA",32.7665698,-117.059316
"5000 Market St, San Diego, CA 92102, USA",32.7104777,-117.0871196
"1800 National Ave, San Diego, CA 92113, USA",32.702058,-117.1465016
"3400 Camino del Rio S, San Diego, CA 92108, USA",32.7768515,-117.1203189
"3500 Meade Ave, San Diego, CA 92116, USA",32.7572109,-117.1179268
"4200 Ingraham St, San Diego, CA 92109, USA",32.7950365,-117.239384
"3600 University Ave, San Diego, CA 92104, USA",32.7497382,-117.1155883
"Harcourt Dr, San Diego, CA 92123, USA",32.7916883,-117.1203675
"1800 Hotel Cir S, San Diego, CA 92108, USA",32.7592417,-117.1793148
"2900 Sunset Cliffs Blvd, San Diego, CA 92107, USA",32.7543192,-117.2368453
"8900 Towne Centre Dr, San Diego, CA 92122, USA",32.8674247,-117.2073906
"9800 Carmel Mountain Rd, San Diego, CA 92129, USA",32.9599383,-117.115876
"4500 El Cajon Blvd, San Diego, CA 92115, USA",32.7553282,-117.0975753
"Damon Ave, San Diego, CA 92109, USA",32.8085618,-117.2184523
"6300 College Grove Way, San Diego, CA 92115, USA",32.7388141,-117.0589785
"800 G St, San Diego, CA 92101, USA",32.7125811,-117.15741
"4400 Home Ave, San Diego, CA 92105, USA",32.7289222,-117.0997803
"5000 Texas St, San Diego, CA 92116, USA",32.7669833,-117.1394899
"4900 70th St, San Diego, CA 92115, USA",32.7676431,-117.0469576
"300 Laurel St, San Diego, CA 92101, USA",32.7313873,-117.1617906
"4200 Twain Ave, San Diego, CA 92120, USA",32.785023,-117.101517
"800 San Diego Pl, San Diego, CA 92109, USA",32.7598098,-117.2488845
"1400 G St, San Diego, CA 92101, USA",32.7126034,-117.1519577
"1700 Euclid Ave, San Diego, CA 92105, USA",32.7229292,-117.0852033
"677 Seventh Ave #412, San Diego, CA 92101, USA",32.7123709,-117.1576329
"3900 Arverne St, San Diego, CA 92111, USA",32.8155841,-117.1702739
"8500 Clairemont Mesa Blvd, San Diego, CA 92111, USA",32.8329068,-117.1433633
"9800 Genesee Ave, La Jolla, CA 92037, USA",32.8808306,-117.2182131
"6300 College Grove Way, San Diego, CA 92115, USA",32.7388141,-117.0589785
"200 W Broadway, San Diego, CA 92101, USA",32.7158733,-117.1645658
"4200 Milton St, San Diego, CA 92110, USA",32.78469949999999,-117.2054601
"3600 Murphy Canyon Rd, San Diego, CA 92123, USA",32.807694,-117.116291
"Mercury St, San Diego, CA 92111, USA",32.8275498,-117.1488402
"700 S Woodman St, San Diego, CA 92114, USA",32.696318,-117.0507938
"4700 Imperial Ave, San Diego, CA 92113, USA",32.7043817,-117.0936468
"3500 Market St, San Diego, CA 92102, USA",32.7116315,-117.1179566
"1300 Briarwood Rd, San Diego, CA 92139, USA",32.6822907,-117.0312349
"19th St, San Diego, CA, USA",32.7115416,-117.1467184
"San Diego, CA, USA",32.715738,-117.1610838
"10000 Tierrasanta Blvd, San Diego, CA 92124, USA",32.8232849,-117.1125979
"4100 Valeta St, San Diego, CA 92110, USA",32.747513,-117.2292025
"4600 Soria Dr, San Diego, CA 92115, USA",32.7618455,-117.0670648
"4100 Ashford St, San Diego, CA 92111, USA",32.8177006,-117.1619394
"4200 Mission Bay Dr, San Diego, CA 92109, USA",32.7981001,-117.2114506
"400 Hotel Cir S, San Diego, CA 92108, USA",32.759391,-117.1770078
"2000 Irving Ave, San Diego, CA 92113, USA",32.7027595,-117.1402687
"4000 Wabash Ave, San Diego, CA 92104, USA",32.7499573,-117.1210768
"2900 Reynard Way, San Diego, CA 92103, USA",32.7356653,-117.1695066
"1900 Grand Ave, San Diego, CA 92109, USA",32.7991671,-117.2347736
"1900 Balboa Ave, San Diego, CA 92109, USA",32.7993994,-117.2342261
"2700 Morena Blvd, San Diego, CA 92117, USA",32.7907494,-117.2061008
"1800 Cross St, San Diego, CA 92110, USA",32.7752481,-117.1911576
"1200 Cesar E. Chavez Pkwy, San Diego, CA 92113, USA",32.6990344,-117.1466185
"300 S 47th St, San Diego, CA 92113, USA",32.7023092,-117.0937479
"2400 Juan St, San Diego, CA 92103, USA",32.752738,-117.1920214
"3500 Meade Ave, San Diego, CA 92116, USA",32.7572109,-117.1179268
"9600 Aero Dr, San Diego, CA 92123, USA",32.8087904,-117.121975
"6100 Mission Gorge Rd, San Diego, CA 92120, USA",32.7850022,-117.0977572
"Front St, San Diego, CA, USA",32.7324099,-117.1648615
"3700 Santo Rd, San Diego, CA 92124, USA",32.8097783,-117.1053976
"100 47th St, San Diego, CA 92102, USA",32.7042169,-117.093725
"3600 Boren St, San Diego, CA 92115, USA",32.7447355,-117.0595193
"3800 Winona Ave, San Diego, CA 92105, USA",32.7471384,-117.0884707
"4200 Texas St, San Diego, CA 92104, USA",32.7544011,-117.1390937
"4100 El Cajon Blvd, San Diego, CA 92105, USA",32.7552572,-117.1071909
"3400 Midway Dr, San Diego, CA 92110, USA",32.7505314,-117.2120812
"2300 Garnet Ave, San Diego, CA 92109, USA",32.8026293,-117.2280121
"4200 52nd St, San Diego, CA 92115, USA",32.7530594,-117.0836301
"5100 El Cajon Blvd, San Diego, CA 92115, USA",32.7575208,-117.0844878
"8400 Genesee Ave, San Diego, CA 92122, USA",32.8673729,-117.2138611
"1900 Elm Ave, San Diego, CA 92154, USA",32.5806375,-117.0926564
"3900 Florida St, San Diego, CA 92104, USA",32.7484401,-117.1437389
"7600 Balboa Ave, San Diego, CA 92111, USA",32.8223491,-117.1594129
"1700 University Ave, San Diego, CA 92103, USA",32.7485664,-117.1478166
"4800 Nobel Dr, San Diego, CA 92122, USA",32.8654659,-117.2085374
"Kaibab Ct, San Diego, CA 92117, USA",32.796529,-117.1975776
"3000 Del Mar Heights Rd, Del Mar, CA 92014, USA",32.9511777,-117.2416961
"700 University Ave, San Diego, CA 92103, USA",32.7483671,-117.1583865
"4300 University Ave, San Diego, CA 92105, USA",32.7498668,-117.1015222
"4100 Chamoune Ave, San Diego, CA 92105, USA",32.7514169,-117.0965734
"500 Saturn Blvd, San Diego, CA 92154, USA",32.5862381,-117.09268
"5600 Balboa Ave, San Diego, CA 92111, USA",32.8204902,-117.1798474
"3800 Camino Del Rio W, San Diego, CA 92110, USA",32.75423350000001,-117.2051213
"4200 Market St, San Diego, CA 92102, USA",32.7114963,-117.1046852
"2200 Famosa Blvd, San Diego, CA 92107, USA",32.7440019,-117.2345075
"Park Blvd, San Diego, CA, USA",32.73307,-117.1460828
"11500 Carmel Mountain Rd, San Diego, CA 92128, USA",32.9791096,-117.0835457
"1600 Ulric St, San Diego, CA 92111, USA",32.7739637,-117.1678953
"4200 Market St, San Diego, CA 92102, USA",32.7114963,-117.1046852
"2900 Pacific Hwy, San Diego, CA 92101, USA",32.7335773,-117.1762628
"11400 Matinal Cir, San Diego, CA 92127, USA",33.0303106,-117.0838476
"7700 Friars Rd, San Diego, CA 92108, USA",32.7739945,-117.1563112
"5100 Monroe Ave, San Diego, CA 92115, USA",32.7589842,-117.084661
"3400 Pickett St, San Diego, CA 92110, USA",32.7559874,-117.2071236
"1100 Pacific Beach Dr, San Diego, CA 92109, USA",32.7921659,-117.248288
"7300 Girard Ave, La Jolla, CA 92037, USA",32.8374132,-117.2719744
"5300 Napa St, San Diego, CA 92110, USA",32.7657516,-117.1983687
"300 26th St, San Diego, CA 92102, USA",32.7084561,-117.1381363
"3100 Landis St, San Diego, CA 92104, USA",32.7455991,-117.1271501
"9700 Friars Rd, San Diego, CA 92123, USA",32.7879091,-117.1160042
"9700 Friars Rd, San Diego, CA 92123, USA",32.7879091,-117.1160042
"6500 Mission Gorge Rd, San Diego, CA 92120, USA",32.7908786,-117.097697
"6500 Skyline Dr, San Diego, CA 92114, USA",32.7012973,-117.0580479
"9100 La Jolla Shores Dr, La Jolla, CA 92037, USA",32.866441,-117.2533753
"6400 Akins Ave, San Diego, CA 92114, USA",32.7107016,-117.0597186
"7000 Friars Rd, San Diego, CA 92108, USA",32.7693892,-117.1701881
"Mira Mesa Blvd, San Diego, CA, USA",32.9095112,-117.159492
"4600 Zion Ave, San Diego, CA 92120, USA",32.793184,-117.0955388
"8900 Mira Mesa Blvd, San Diego, CA 92126, USA",32.9138568,-117.1329459
"2200 Bolinas St, San Diego, CA 92107, USA",32.7460196,-117.2370124
"7300 Golfcrest Pl, San Diego, CA 92119, USA",32.8022738,-117.0390002
"7300 Golfcrest Pl, San Diego, CA 92119, USA",32.8022738,-117.0390002
"900 Beyer Way, San Diego, CA 92154, USA",32.5808207,-117.0627589
"4900 Logan Ave, San Diego, CA 92113, USA",32.6968041,-117.0893528
"1600 Thomas Ave, San Diego, CA 92109, USA",32.7969081,-117.2399371
"3700 Swift Ave, San Diego, CA 92104, USA",32.7463227,-117.1195902
"10700 Calle Mar De Mariposa, San Diego, CA 92130, USA",32.913436,-117.2279683
"800 S 45th St, San Diego, CA 92113, USA",32.6976952,-117.0982312
"1900 Garnet Ave, San Diego, CA 92109, USA",32.8010031,-117.2353178
"1000 S 38th St, San Diego, CA 92113, USA",32.69604,-117.112461
"4100 54th St, San Diego, CA 92115, USA",32.7516723,-117.0797367
"3800 Pershing Ave, San Diego, CA 92104, USA",32.7475832,-117.1346645
"3800 41st St, San Diego, CA 92105, USA",32.7478055,-117.1069558
"5100 Monroe Ave, San Diego, CA 92115, USA",32.7589842,-117.084661
"2100 S Woodman St, San Diego, CA 92139, USA",32.6870589,-117.0454705
"3500 El Cajon Blvd, San Diego, CA 92104, USA",32.7553088,-117.1179072
"7900 Balboa Ave, San Diego, CA 92111, USA",32.8218259,-117.1530962
"6300 University Ave, San Diego, CA 92115, USA",32.7542686,-117.0599499
"500 W San Ysidro Blvd, San Diego, CA 92173, USA",32.5565512,-117.056457
"3800 La Jolla Village Dr, La Jolla, CA 92037, USA",32.8710446,-117.2231538
"700 W Broadway, San Diego, CA 92101, USA",32.7157769,-117.1692214
"500 S 58th St, San Diego, CA 92114, USA",32.700176,-117.0732587
"9300 Mira Mesa Blvd, San Diego, CA 92126, USA",32.9172417,-117.1247601
"200 17th St, San Diego, CA 92101, USA",32.707333,-117.1488176
"3800 Redwood St, San Diego, CA 92105, USA",32.7384947,-117.1119949
"Garnet Ave, San Diego, CA, USA",32.8011136,-117.2348311
"4700 Market St, San Diego, CA 92102, USA",32.7114143,-117.0935535
"14th St, San Diego, CA 92101, USA",32.7110276,-117.1519048
"400 Broadway, San Diego, CA 92101, USA",32.716118,-117.166936
"Carmel Valley Rd, San Diego, CA, USA",32.9723699,-117.1510588
"16700 W Bernardo Dr, San Diego, CA 92127, USA",33.0160196,-117.0823764
"5400 Mission Center Rd, San Diego, CA 92108, USA",32.7707848,-117.1549369
"4300 Mission Bay Dr, San Diego, CA 92109, USA",32.7997637,-117.212887
"8500 Jamacha Rd, Spring Valley, CA 91977, USA",32.714889,-117.0176351
"1700 Euclid Ave, San Diego, CA 92105, USA",32.7229292,-117.0852033
"San Diego, CA, USA",32.715738,-117.1610838
"9500 Galvin Ave, San Diego, CA 92126, USA",32.9205971,-117.1237966
"16601 Nighthawk Ln, San Diego, CA 92127, USA",33.0144484,-117.1214139
"2900 National Ave, San Diego, CA 92113, USA",32.6961843,-117.1316349
"9400 Genesee Ave, La Jolla, CA 92037, USA",32.877444,-117.2144691
"1100 Kelton Rd, San Diego, CA 92114, USA",32.717163,-117.0751881
"S 32nd St, San Diego, CA, USA",32.6949439,-117.125313
"6500 Beadnell Way, San Diego, CA 92117, USA",32.8211864,-117.1722381
"600 11th Ave, San Diego, CA 92101, USA",32.7115497,-117.1546583
"3600 Altadena Ave, San Diego, CA 92105, USA",32.7442599,-117.0865134
"4300 Morrell St, San Diego, CA 92109, USA",32.7985006,-117.2326295
"4500 Fairmount Ave, San Diego, CA 92115, USA",32.7637712,-117.0969401
"100 S 28th St, San Diego, CA 92113, USA",32.7048328,-117.133873
"San Diego, CA, USA",32.715738,-117.1610838
"2400 Park Blvd, San Diego, CA 92101, USA",32.729588,-117.1463992
"14600 Via Fiesta, San Diego, CA 92127, USA",32.9898189,-117.1636692
"7000 Friars Rd, San Diego, CA 92108, USA",32.7693892,-117.1701881
"3400 Juniper St, San Diego, CA 92104, USA",32.7296044,-117.1214373
"4200 Dakota Dr, San Diego, CA 92117, USA",32.8004687,-117.2015758
"3400 College Ave, San Diego, CA 92115, USA",32.7422586,-117.0516876
"10700 Camino Ruiz, San Diego, CA 92126, USA",32.9126086,-117.1439595
"11400 Scripps Poway Pkwy, San Diego, CA 92131, USA",32.9343058,-117.0853449
"3700 54th St, San Diego, CA 92105, USA",32.7456643,-117.0795494
"1100 Broadway, San Diego, CA 92101, USA",32.7162212,-117.1543344
"Balboa Ave, San Diego, CA, USA",32.8204597,-117.1670842
"3500 El Cajon Blvd, San Diego, CA 92104, USA",32.7553088,-117.1179072
"10500 Porto Ct, San Diego, CA 92124, USA",32.8257969,-117.1038815
"3800 Ruffin Rd, San Diego, CA 92123, USA",32.8122083,-117.1201992
"Cam Corto, Oceanside, CA 92028, USA",33.29403060000001,-117.2601678
"15500 Bernardo Center Dr, San Diego, CA 92127, USA",33.0036711,-117.0979614
"7000 Imperial Ave, San Diego, CA 92114, USA",32.7135699,-117.0477127
"5100 Carroll Canyon Rd, San Diego, CA 92121, USA",32.8897803,-117.2008726
"1800 Sunset Cliffs Blvd, San Diego, CA 92107, USA",32.7430525,-117.2490455
"500 Sea World Dr, San Diego, CA 92109, USA",32.7641067,-117.2262649
"7600 Palmilla Dr, San Diego, CA 92122, USA",32.8573378,-117.2266736
"9300 Clairemont Mesa Blvd, San Diego, CA 92123, USA",32.8315034,-117.1288023
"5900 Balboa Ave, San Diego, CA 92111, USA",32.8203525,-117.1780615
"Camino Del Rio N, San Diego, CA, USA",32.7739609,-117.1308519
"3500 Barnett Ave, San Diego, CA 92110, USA",32.745511,-117.198609
"Alta View Dr, San Diego, CA 92139, USA",32.6799208,-117.0463689
"9600 Genesee Ave, La Jolla, CA 92037, USA",32.8797522,-117.2159503
"10100 Genesee Ave, La Jolla, CA 92037, USA",32.8867606,-117.2260064
"500 University Ave, San Diego, CA 92103, USA",32.7484795,-117.1602648
"2500 Genesee Ave, San Diego, CA 92111, USA",32.7914365,-117.1597178
"8000 Ronson Rd, San Diego, CA 92111, USA",32.82948470000001,-117.1500932
"4300 Mission Blvd, San Diego, CA 92109, USA",32.7936796,-117.2545925
"Sorrento Valley Rd, San Diego, CA 92121, USA",32.9082032,-117.2283703
"2000 Abbott St, San Diego, CA 92107, USA",32.7496535,-117.2513402
"1900 Garnet Ave, San Diego, CA 92109, USA",32.8010031,-117.2353178
"4300 Mission Bay Dr, San Diego, CA 92109, USA",32.7997637,-117.212887
"3400 Apollo St, San Diego, CA 92111, USA",32.8071404,-117.1625753
"16th St, San Diego, CA 92101, USA",32.7124618,-117.149461
"5800 University Ave, San Diego, CA 92115, USA",32.7492955,-117.0729412
"4600 F St, San Diego, CA 92102, USA",32.7137168,-117.0956779
"5600 College Grove Dr, San Diego, CA 92115, USA",32.7363801,-117.0751377
"Genesee Ave, San Diego, CA, USA",32.8419881,-117.1975858
"4100 Mt Everest Blvd, San Diego, CA 92111, USA",32.8162491,-117.1851889
"14500 San Pasqual Valley Rd, Escondido, CA 92027, USA",33.0988314,-117.0151925
"8600 Park Run Rd, San Diego, CA 92129, USA",32.9525592,-117.1395474
"16100 San Pasqual Valley Rd, Escondido, CA 92027, USA",33.0861594,-116.9906809
"13100 Black Mountain Rd, San Diego, CA 92129, USA",32.9538567,-117.130172
"1700 Plum St, San Diego, CA 92106, USA",32.7310032,-117.229748
"4600 34th St, San Diego, CA 92116, USA",32.7609985,-117.1206731
"4300 Convoy St, San Diego, CA 92111, USA",32.8188727,-117.1549555
"1400 Rosecrans St, San Diego, CA 92106, USA",32.7249863,-117.2288863
"8400 Scarf Pl, San Diego, CA 92119, USA",32.8066384,-117.0162109
"10600 Tierrasanta Blvd, San Diego, CA 92124, USA",32.8234229,-117.1027777
"6900 Parkside Ave, San Diego, CA 92139, USA",32.6744897,-117.0430775
"100 17th St, San Diego, CA 92101, USA",32.7062833,-117.1485282
"San Diego, CA, USA",32.715738,-117.1610838
"Palm Ave, San Diego, CA 92123, USA",32.8024925,-117.1405524
"100 25th St, San Diego, CA 92102, USA",32.7063407,-117.1402135
"6800 Amherst St, San Diego, CA 92115, USA",32.7678396,-117.0513216
"7400 Lusk Blvd, San Diego, CA 92121, USA",32.8997392,-117.2163168
"East Dr, San Diego, CA 92110, USA",32.7517099,-117.2087766
"7600 Mission Valley Rd, San Diego, CA 92108, USA",32.7782072,-117.1570308
"3600 California St, San Diego, CA 92101, USA",32.7398072,-117.1804107
"10200 Keppler Pl, San Diego, CA 92124, USA",32.8205364,-117.107482
"1800 Sunset Cliffs Blvd, San Diego, CA 92107, USA",32.7430525,-117.2490455
"500 Island Ave, San Diego, CA 92101, USA",32.7104406,-117.1601271
"3900 Albatross St, San Diego, CA 92103, USA",32.7485075,-117.1661553
"3700 Orange Ave, San Diego, CA 92105, USA",32.7532697,-117.1130715
"6500 Mission Gorge Rd, San Diego, CA 92120, USA",32.7908786,-117.097697
"3000 Mission Village Dr, San Diego, CA 92123, USA",32.7983721,-117.1265845
"11200 Rancho Carmel Dr, San Diego, CA 92128, USA",32.9808743,-117.0828511
"3300 Carmel Mountain Rd, San Diego, CA 92121, USA",32.9162691,-117.2372998
"7600 Hazard Center Dr, San Diego, CA 92108, USA",32.7708299,-117.1582008
"700 W Ash St, San Diego, CA 92101, USA",32.7201819,-117.1692341
"1200 University Ave, San Diego, CA 92103, USA",32.7486488,-117.1533717
"7700 Mira Mesa Blvd, San Diego, CA 92126, USA",32.90981,-117.1586794
"4100 58th St, San Diego, CA 92115, USA",32.750567,-117.0729542
"11200 Clairemont Mesa Blvd, San Diego, CA 92124, USA",32.829604,-117.089463
"3800 Convoy St, San Diego, CA 92111, USA",32.8123258,-117.1529749
"4200 Orange Ave, San Diego, CA 92105, USA",32.7532169,-117.1050582
"8900 Mira Mesa Blvd, San Diego, CA 92126, USA",32.9138568,-117.1329459
"800 E St, San Diego, CA 92101, USA",32.7146893,-117.1574202
"2200 Grand Ave, San Diego, CA 92109, USA",32.8003551,-117.2292719
"1100 Coast Blvd, La Jolla, CA 92037, USA",32.850382,-117.2728714
"300 Juniper St, San Diego, CA 92101, USA",32.7292799,-117.1620915
"9000 Dewsbury Ave, San Diego, CA 92126, USA",32.9187449,-117.1316413
"2200 Grand Ave, San Diego, CA 92109, USA",32.8003551,-117.2292719
"12200 Rancho Bernardo Rd, San Diego, CA 92128, USA",33.020226,-117.0658865
"200 G St, San Diego, CA 92101, USA",32.7125571,-117.1628565
"9900 Genesee Ave, San Diego, CA 92121, USA",32.8863326,-117.2265948
"1700 E Mission Bay Dr, San Diego, CA 92109, USA",32.7773723,-117.2096254
"7700 Balboa Ave, San Diego, CA 92111, USA",32.8218241,-117.1586937
"5000 Logan Ave, San Diego, CA 92113, USA",32.6967945,-117.0874185
"4200 El Cajon Blvd, San Diego, CA 92105, USA",32.7552306,-117.1050371
"10200 Black Mountain Rd, San Diego, CA 92126, USA",32.9027456,-117.1241047
"4200 Witherby St, San Diego, CA 92103, USA",32.7512939,-117.1877153
"5900 Fairmount Ave, San Diego, CA 92108, USA",32.7820515,-117.1021
"4200 Porte De Merano, San Diego, CA 92122, USA",32.8603812,-117.2233883
"2300 E Beyer Blvd, San Diego, CA 92173, USA",32.5567295,-117.0406897
"1600 Grand Ave, San Diego, CA 92109, USA",32.7979464,-117.2402746
"2100 Cable St, San Diego, CA 92107, USA",32.7491779,-117.2464466
"800 Cardiff St, San Diego, CA 92114, USA",32.71372,-117.0251319
"4100 30th St, San Diego, CA 92104, USA",32.752214,-117.130173
"1600 S 32nd St, San Diego, CA 92113, USA",32.6893906,-117.1253939
"4200 National Ave, San Diego, CA 92113, USA",32.6961387,-117.1037939
"San Diego, CA, USA",32.715738,-117.1610838
"1500 Euclid Ave, San Diego, CA 92102, USA",32.7207656,-117.0849563
"32nd St, San Diego, CA, USA",32.7356296,-117.1250606
"2700 Market St, San Diego, CA 92102, USA",32.7116213,-117.1359983
"4500 Viewridge Ave, San Diego, CA 92123, USA",32.8225493,-117.1250963
"3500 Dumas St, San Diego, CA 92106, USA",32.7424528,-117.2215102
"5200 Imperial Ave, San Diego, CA 92114, USA",32.7058665,-117.0827006
"Elm Ave, San Diego, CA, USA",32.5806386,-117.1034661
"4300 Beyer Blvd, San Diego, CA 92173, USA",32.558665,-117.0430049
"2000 Via Las Cumbres, San Diego, CA 92111, USA",32.7791109,-117.1794796
"4500 Ohio St, San Diego, CA 92116, USA",32.7591795,-117.1289591
"5600 El Cajon Blvd, San Diego, CA 92115, USA",32.758678,-117.074716
"Balboa Ave, San Diego, CA, USA",32.8204597,-117.1670842
"5300 El Cajon Blvd, San Diego, CA 92115, USA",32.7577983,-117.0815842
"1800 N Harbor Dr, San Diego, CA 92101, USA",32.7235971,-117.1734627
"5800 Roanoke St, San Diego, CA 92139, USA",32.6720474,-117.0644303
"4700 Logan Ave, San Diego, CA 92113, USA",32.6967978,-117.0937357
"12000 World Trade Dr, San Diego, CA 92128, USA",32.9805938,-117.0753538
"1600 Garnet Ave, San Diego, CA 92109, USA",32.7998425,-117.2407445
"9200 Hillery Dr, San Diego, CA 92126, USA",32.9130931,-117.1269957
"6000 University Ave, San Diego, CA 92115, USA",32.752373,-117.0667587
"54th St, San Diego, CA, USA",32.7475387,-117.0795338
"2400 Garnet Ave, San Diego, CA 92109, USA",32.8033282,-117.2261702
"6300 50th St, San Diego, CA 92120, USA",32.7869697,-117.0862467
"Cardiff St, San Diego, CA 92114, USA",32.7131255,-117.0246196
"600 Cochran Ave, San Diego, CA 92154, USA",32.5852766,-117.0589302
"9800 Genesee Ave, La Jolla, CA 92037, USA",32.8808306,-117.2182131
"1800 Hancock St, San Diego, CA 92110, USA",32.7429686,-117.1854445
"3400 Sports Arena Blvd, San Diego, CA 92110, USA",32.7534819,-117.2102829
"500 17th St, San Diego, CA 92101, USA",32.7104796,-117.1485513
"1000 Cardiff St, San Diego, CA 92114, USA",32.7165268,-117.0255374
"1000 Cardiff St, San Diego, CA 92114, USA",32.7165268,-117.0255374
"2200 El Cajon Blvd, San Diego, CA 92104, USA",32.7556053,-117.1410667
"10300 San Diego Mission Rd, San Diego, CA 92108, USA",32.785988,-117.1118283
"5900 Santo Rd, San Diego, CA 92124, USA",32.8384349,-117.0984392
"4200 Valeta St, San Diego, CA 92107, USA",32.7475572,-117.2293909
"2100 Rosecrans St, San Diego, CA 92106, USA",32.7334749,-117.2217639
"4300 Genesee Ave, San Diego, CA 92117, USA",32.8213478,-117.1830275
"1900 Diamond St, San Diego, CA 92109, USA",32.8038031,-117.2361918
"2900 Fairmount Ave, San Diego, CA 92105, USA",32.7360908,-117.1012961
"800 W Hawthorn St, San Diego, CA 92101, USA",32.7263778,-117.1694377
"5200 Montezuma Rd, San Diego, CA 92115, USA",32.7708628,-117.0844814
"Camino De La Plaza, San Diego, CA, USA",32.5452915,-117.044865
"12500 Stone Canyon Rd, Poway, CA 92064, USA",33.0041365,-117.0594834
"3100 Marlborough Ave, San Diego, CA 92105, USA",32.7386176,-117.1058366
"5300 College Ave, San Diego, CA 92115, USA",32.775813,-117.0679258
"3900 Harney St, San Diego, CA 92110, USA",32.7514444,-117.1963665
"9400 Genesee Ave, La Jolla, CA 92037, USA",32.877444,-117.2144691
"2100 Pan American Plaza, San Diego, CA 92101, USA",32.7289384,-117.1520725
"3000 Madison Ave, San Diego, CA 92116, USA",32.7610456,-117.1301838
"5800 Miramar Rd, San Diego, CA 92121, USA",32.8774291,-117.184616
"4000 38th St, San Diego, CA 92105, USA",32.7497223,-117.1118821
"2800 Fairmount Ave, San Diego, CA 92105, USA",32.7352695,-117.1011117
"San Diego Ave, San Diego, CA, USA",32.7468632,-117.1900692
"1200 Park Blvd, San Diego, CA 92101, USA",32.7081094,-117.1538414
"3200 Berger Ave, San Diego, CA 92123, USA",32.8031454,-117.1519071
"4300 47th St, San Diego, CA 92115, USA",32.7559707,-117.0929375
"8800 Friars Rd, San Diego, CA 92108, USA",32.7781291,-117.1408596
"2400 La Jolla Pkwy, La Jolla, CA 92037, USA",32.8485342,-117.2478864
"2900 Sunset Cliffs Blvd, San Diego, CA 92107, USA",32.7543192,-117.2368453
"7100 Princess View Dr, San Diego, CA 92120, USA",32.8005181,-117.0778441
"7000 Clairemont Mesa Blvd, San Diego, CA 92111, USA",32.8330384,-117.1642917
"1400 Garnet Ave, San Diego, CA 92109, USA",32.7991845,-117.2444118
"San Diego, CA, USA",32.715738,-117.1610838
"5400 Trojan Ave, San Diego, CA 92115, USA",32.7548803,-117.0790417
"800 Duval St, San Diego, CA 92102, USA",32.7138033,-117.091091
"1400 Felspar St, San Diego, CA 92109, USA",32.7999083,-117.2447928
"4400 Genesee Ave, San Diego, CA 92117, USA",32.8231378,-117.184624
"14000 Carmel Valley Rd, San Diego, CA 92130, USA",32.9708875,-117.1572823
"2600 Camino Del Rio N, San Diego, CA 92108, USA",32.7730614,-117.1361264
"7300 Navajo Rd, San Diego, CA 92119, USA",32.8042733,-117.0379921
"Alvarado Canyon Rd, San Diego, CA 92120, USA",32.7806503,-117.093875
"5100 W Point Loma Blvd, San Diego, CA 92107, USA",32.7542072,-117.2473163
"4400 El Cajon Blvd, San Diego, CA 92115, USA",32.7552984,-117.1001757
"4000 Fairmount Ave, San Diego, CA 92105, USA",32.7496281,-117.1009186
"1600 Gilmartin Dr, San Diego, CA 92114, USA",32.6928205,-117.0541792
"5700 El Cajon Blvd, San Diego, CA 92115, USA",32.758956,-117.0735215
"300 W Ash St, San Diego, CA 92101, USA",32.71987490000001,-117.1656403
"4500 University Ave, San Diego, CA 92105, USA",32.7496047,-117.0976821
"6600 Miramar Rd, San Diego, CA 92121, USA",32.8779022,-117.1725414
"5600 Linda Vista Rd, San Diego, CA 92110, USA",32.7689512,-117.1923772
"2900 Zoo Dr, San Diego, CA 92101, USA",32.7381335,-117.1491923
"5400 Reservoir Dr, San Diego, CA 92120, USA",32.773429,-117.0562958
"9300 Balboa Ave, San Diego, CA 92123, USA",32.82233950000001,-117.1297983
"2400 Mission Village Dr, San Diego, CA 92123, USA",32.7893123,-117.120748
"1900 Logan Ave, San Diego, CA 92113, USA",32.7014655,-117.14427
"2300 Morley St, San Diego, CA 92111, USA",32.7848615,-117.1714701
"9400 Balboa Ave, San Diego, CA 92123, USA",32.8223973,-117.1274556
"3000 Cedar St, San Diego, CA 92102, USA",32.7223515,-117.1301919
"3000 Adams Ave, San Diego, CA 92116, USA",32.7629004,-117.1302137
"12100 Rancho Bernardo Rd, San Diego, CA 92128, USA",33.0221865,-117.0685582
"San Diego, CA, USA",32.715738,-117.1610838
"3300 Monroe Ave, San Diego, CA 92116, USA",32.7591427,-117.1232082
"5400 Kearny Villa Rd, San Diego, CA 92123, USA",32.8324527,-117.1385582
"6800 Balboa Ave, San Diego, CA 92117, USA",32.8206269,-117.1685663
"3700 69th St, La Mesa, CA 91941, USA",32.7447699,-117.049263
"San Diego, CA, USA",32.715738,-117.1610838
"1700 E Mission Bay Dr, San Diego, CA 92109, USA",32.7773723,-117.2096254
"4900 Ocean View Hills Pkwy, San Diego, CA 92154, USA",32.5827058,-117.0267292
"7700 Friars Rd, San Diego, CA 92108, USA",32.7739945,-117.1563112
"3800 Pacific Hwy, San Diego, CA 92110, USA",32.7425195,-117.1892997
"5200 Mission Bay Dr, San Diego, CA 92109, USA",32.8095059,-117.2197281
"2600 Garnet Ave, San Diego, CA 92109, USA",32.8052875,-117.2228933
"12300 Pathos Ln, San Diego, CA 92129, USA",32.9415969,-117.1402635
"17000 W Bernardo Dr, San Diego, CA 92127, USA",33.0239271,-117.0821984
"Park Blvd, San Diego, CA, USA",32.73307,-117.1460828
"4900 Jumano Ave, San Diego, CA 92117, USA",32.7965687,-117.1955849
"3700 Wightman St, San Diego, CA 92105, USA",32.747858,-117.1131461
"3500 Corona Oriente Rd, San Diego, CA 92109, USA",32.7890784,-117.2336748
"2200 Famosa Blvd, San Diego, CA 92107, USA",32.7440019,-117.2345075
"6900 Linda Vista Rd, San Diego, CA 92111, USA",32.7835407,-117.1717605
"2000 Torrey Pines Rd, La Jolla, CA 92037, USA",32.8498304,-117.259306
"3100 Carmel Valley Rd, San Diego, CA 92130, USA",32.9333658,-117.2397147
"5300 Meade Ave, San Diego, CA 92115, USA",32.7565698,-117.0817262
"San Diego, CA, USA",32.715738,-117.1610838
"1000 15th St, San Diego, CA 92154, USA",32.7157645,-117.1503982
"10600 Treena St, San Diego, CA 92131, USA",32.9103047,-117.1138406
"8000 Dagget St, San Diego, CA 92111, USA",32.8241045,-117.1507338
"11200 N Torrey Pines Rd, San Diego, CA 92121, USA",32.9102411,-117.2443921
"Alvarado Rd, San Diego, CA, USA",32.7737795,-117.0474042
"Dennery Rd, San Diego, CA 92154, USA",32.58258070000001,-117.032392
"4700 Voltaire St, San Diego, CA 92107, USA",32.7488588,-117.2414457
"400 S Meadowbrook Dr, San Diego, CA 92114, USA",32.6992659,-117.0275506
"4000 Huerfano Ave, San Diego, CA 92117, USA",32.814583,-117.21637
"6100 Mira Mesa Blvd, San Diego, CA 92121, USA",32.9002249,-117.1901675
"200 W Market St, San Diego, CA 92101, USA",32.7115172,-117.1646954
"2600 Denver St, San Diego, CA 92110, USA",32.7892949,-117.2035042
"7600 Linda Vista Rd, San Diego, CA 92111, USA",32.800933,-117.1581875
"Logan Ave, San Diego, CA, USA",32.6970859,-117.1139625
"6900 Friars Rd, San Diego, CA 92108, USA",32.7689297,-117.1716076
"8600 Villa La Jolla Dr, La Jolla, CA 92037, USA",32.8648151,-117.2351865
"1700 Sunset Cliffs Blvd, San Diego, CA 92107, USA",32.7413664,-117.250503
"4700 Lamont St, San Diego, CA 92109, USA",32.8038031,-117.2361918
"5300 Remington Rd, San Diego, CA 92115, USA",32.775809,-117.0808348
"7900 La Jolla Shores Dr, La Jolla, CA 92037, USA",32.8505015,-117.2550034
"1400 Garnet Ave, San Diego, CA 92109, USA",32.7991845,-117.2444118
"1900 Palm Ave, San Diego, CA 92154, USA",32.5839055,-117.0912115
"2100 Logan Ave, San Diego, CA 92113, USA",32.6991565,-117.1405841
"5000 Convoy St, San Diego, CA 92111, USA",32.8328216,-117.1533686
"4500 Olney St, San Diego, CA 92109, USA",32.8022028,-117.2298558
"2200 Garnet Ave, San Diego, CA 92109, USA",32.8024058,-117.229851
"2500 Del Mar Heights Rd, Del Mar, CA 92014, USA",32.9487069,-117.2497189
"6100 Balboa Ave, San Diego, CA 92111, USA",32.8203967,-117.1760625
"4400 Figueroa Blvd, San Diego, CA 92109, USA",32.8024623,-117.2178264
"4400 Figueroa Blvd, San Diego, CA 92109, USA",32.8024623,-117.2178264
"1500 Palm Ave, San Diego, CA 92154, USA",32.5841382,-117.1014913
"3200 Central Ave, San Diego, CA 92105, USA",32.7394338,-117.1085746
"6300 Varney Dr, San Diego, CA 92114, USA",32.6960378,-117.0619371
"5900 Division St, San Diego, CA 92114, USA",32.6939038,-117.069426
"2900 Health Center Dr, San Diego, CA 92123, USA",32.7967547,-117.1568075
"Hollister St, San Diego, CA 92154, USA",32.5691699,-117.0840422
"1500 Palm Ave, San Diego, CA 92154, USA",32.5841382,-117.1014913
"3900 Mission Blvd, San Diego, CA 92109, USA",32.7871894,-117.2535637
"70th St, San Diego, CA, USA",32.763516,-117.0467983
"2900 Ca√±on St, San Diego, CA 92106, USA",32.7208684,-117.2308518
"4600 Orange Ave, San Diego, CA 92115, USA",32.7531422,-117.0954767
"6900 Genesee Ave, San Diego, CA 92122, USA",32.8597201,-117.207631
"4300 El Cajon Blvd, San Diego, CA 92105, USA",32.7554072,-117.1011965
"100 W Washington St, San Diego, CA 92103, USA",32.7499659,-117.1639162
"3800 Moore St, San Diego, CA 92110, USA",32.7493869,-117.1950444
"San Diego, CA, USA",32.715738,-117.1610838
"12700 Torrey Bluff Dr, San Diego, CA 92130, USA",32.9545837,-117.2272288
"7100 Shoreline Dr, San Diego, CA 92122, USA",32.8661076,-117.2022747
"16700 Bernardo Center Dr, San Diego, CA 92128, USA",33.0168072,-117.0765908
"7800 Clairemont Mesa Blvd, San Diego, CA 92111, USA",32.8328227,-117.1532182
"1400 Garnet Ave, San Diego, CA 92109, USA",32.7991845,-117.2444118
"5400 Chollas Pkwy, San Diego, CA 92105, USA",32.7450974,-117.0793296
"4600 Convoy St, San Diego, CA 92111, USA",32.8237433,-117.1552298
"7400 Girard Ave, La Jolla, CA 92037, USA",32.838774,-117.2724277
"5800 Balboa Ave, San Diego, CA 92111, USA",32.820347,-117.1781773
"600 22nd St, San Diego, CA 92102, USA",32.7115677,-117.1440047
"9000 Gold Coast Dr, San Diego, CA 92126, USA",32.9054454,-117.1304054
"1100 Goshen St, San Diego, CA 92110, USA",32.7667591,-117.1870972
"2210 1st Ave, San Diego, CA 92101, USA",32.7284719,-117.164209
"2100 Sunset Cliffs Blvd, San Diego, CA 92107, USA",32.7480851,-117.2447005
"5700 Friars Rd, San Diego, CA 92110, USA",32.7648792,-117.189667
"6300 Estrella Ave, San Diego, CA 92120, USA",32.7871704,-117.089549
"6400 Skyline Dr, San Diego, CA 92114, USA",32.701329,-117.0608663
"4600 Hinson Pl, San Diego, CA 92115, USA",32.76163950000001,-117.0789421
"1300 Grand Ave, San Diego, CA 92109, USA",32.7970812,-117.2455954
"2900 Beech St, San Diego, CA 92102, USA",32.7213347,-117.1320233
"5000 Trojan Ave, San Diego, CA 92115, USA",32.7549152,-117.0868537
"1500 Torrey Pines Rd, La Jolla, CA 92037, USA",32.8472052,-117.2673674
"2200 Sunset Cliffs Blvd, San Diego, CA 92107, USA",32.749905,-117.24317
"5100 Imperial Ave, San Diego, CA 92102, USA",32.704639,-117.0849383
"11300 El Camino Real, San Diego, CA 92130, USA",32.9252473,-117.2365408
"3100 Sports Arena Blvd, San Diego, CA 92110, USA",32.7519338,-117.2053239
"6900 Balboa Ave, San Diego, CA 92117, USA",32.8205866,-117.1671066
"2200 Torrey Pines Rd, La Jolla, CA 92037, USA",32.85057,-117.2542806
"1900 Bacon St, San Diego, CA 92107, USA",32.7470077,-117.2510052
"3600 Mission Blvd, San Diego, CA 92109, USA",32.7805092,-117.2527997
"3800 Ingraham St, San Diego, CA 92109, USA",32.7887739,-117.2375197
"5900 Linda Vista Rd, San Diego, CA 92110, USA",32.7703296,-117.1883006
"5900 Linda Vista Rd, San Diego, CA 92110, USA",32.7703296,-117.1883006
"700 W Cedar St, San Diego, CA 92101, USA",32.7219426,-117.1691828
"3100 El Cajon Blvd, San Diego, CA 92104, USA",32.7554086,-117.127708
"4200 Orange Ave, San Diego, CA 92105, USA",32.7532169,-117.1050582
"6400 El Cajon Blvd, San Diego, CA 92115, USA",32.7652663,-117.0610096
"1700 Rosecrans St, San Diego, CA 92106, USA",32.72866,-117.225834
"2000 Camino Del Este, San Diego, CA 92108, USA",32.770943,-117.1442072
"4700 Cardin St, San Diego, CA 92111, USA",32.8271316,-117.1629533
"6700 La Jolla Blvd, La Jolla, CA 92037, USA",32.829068,-117.2770594
"4800 La Cuenta Dr, San Diego, CA 92124, USA",32.8187267,-117.100192
"200 Avenida De La Madrid, San Diego, CA 92173, USA",32.5628726,-117.0462768
"2800 Keats St, San Diego, CA 92106, USA",32.7267945,-117.224362
"9900 Friars Rd, San Diego, CA 92124, USA",32.7886501,-117.1125521
"4100 Point Loma Ave, San Diego, CA 92107, USA",32.7295669,-117.2436302
"4100 Market St, San Diego, CA 92102, USA",32.7115178,-117.1065183
"600 W Washington St, San Diego, CA 92103, USA",32.7499261,-117.1686811
"East Campus Dr, San Diego, CA 92182, USA",32.7737577,-117.0670317
"9300 Mira Mesa Blvd, San Diego, CA 92126, USA",32.9172417,-117.1247601
"I-15, San Diego, CA, USA",32.7083834,-117.1201054
"4400 Mission Bay Dr, San Diego, CA 92109, USA",32.8005227,-117.2137335
"5100 El Cajon Blvd, San Diego, CA 92115, USA",32.7575208,-117.0844878
"7900 Mira Mesa Blvd, San Diego, CA 92126, USA",32.9120257,-117.1522175
"700 University Ave, San Diego, CA 92103, USA",32.7483671,-117.1583865
"7000 Via Estrada, La Jolla, CA 92037, USA",32.83544260000001,-117.2544153
"3500 National Ave, San Diego, CA 92113, USA",32.6962732,-117.1188471
"4600 Mission Blvd, San Diego, CA 92109, USA",32.797378,-117.2559917
"4500 Home Ave, San Diego, CA 92105, USA",32.7308532,-117.0973222
"13100 Stonebridge Pkwy, San Diego, CA 92131, USA",32.9228073,-117.039735
"200 W Washington St, San Diego, CA 92103, USA",32.7499548,-117.1650448
"4100 Bonillo Dr, San Diego, CA 92115, USA",32.7531334,-117.059542
"S 45th St, San Diego, CA 92113, USA",32.697907,-117.0980447
"11000 Poway Rd, San Diego, CA 92128, USA",32.9464145,-117.0901949
"San Diego, CA, USA",32.715738,-117.1610838
"2300 Ridge View Dr, San Diego, CA 92105, USA",32.7302387,-117.0957622
"1300 Grand Ave, San Diego, CA 92109, USA",32.7970812,-117.2455954
"400 Euclid Ave, San Diego, CA 92114, USA",32.7091662,-117.0850959
"Santa Barbara St, San Diego, CA 92107, USA",32.734555,-117.2457573
"655 Sixth Ave #413, San Diego, CA 92101, USA",32.712074,-117.158949
"4200 Everts St, San Diego, CA 92109, USA",32.7938227,-117.2470035
"2800 Rosecrans St, San Diego, CA 92106, USA",32.7418629,-117.2145361
"4300 Jutland Dr, San Diego, CA 92117, USA",32.8252989,-117.2270833
"10100 Black Mountain Rd, San Diego, CA 92126, USA",32.9017256,-117.1245728
"7900 Gilman Ct, La Jolla, CA 92037, USA",32.8511128,-117.236795
"2900 Camino Del Rio N, San Diego, CA 92108, USA",32.7743324,-117.130807
"5600 Balboa Ave, San Diego, CA 92111, USA",32.8204902,-117.1798474
"6600 Montezuma Rd, San Diego, CA 92115, USA",32.7693693,-117.0561006
"3000 Sunset Cliffs Blvd, San Diego, CA 92109, USA",32.7588575,-117.2334678
"100 Beech St, San Diego, CA 92101, USA",32.7208979,-117.1638397
"8500 Larkdale Ave, San Diego, CA 92123, USA",32.8018195,-117.1448258
"3700 Beyer Blvd, San Diego, CA 92173, USA",32.5618704,-117.0543689
"3800 Fairmount Ave, San Diego, CA 92105, USA",32.7479051,-117.1009287
"3000 Rosecrans St, San Diego, CA 92110, USA",32.7443394,-117.2125141
"6400 Skyline Dr, San Diego, CA 92114, USA",32.701329,-117.0608663
"4000 33rd St, San Diego, CA 92104, USA",32.7503875,-117.1225728
"3800 Valley Centre Dr, San Diego, CA 92130, USA",32.937789,-117.2333244
"4600 Montezuma Rd, San Diego, CA 92115, USA",32.7710701,-117.0931304
"4600 Montezuma Rd, San Diego, CA 92115, USA",32.7710701,-117.0931304
"700 Pearl St, La Jolla, CA 92037, USA",32.8396393,-117.2761345
"4800 Adams Ave, San Diego, CA 92115, USA",32.7623938,-117.0906479
"2400 Grand Ave, San Diego, CA 92109, USA",32.8011634,-117.2256243
"46000 Miramar Way, San Diego, CA 92145, USA",32.8808087,-117.1526177
"600 Tenth Ave, San Diego, CA 92101, USA",32.7115606,-117.1555917
"7300 Miramar Rd, San Diego, CA 92126, USA",32.8819964,-117.156186
"3800 Boundary St, San Diego, CA 92104, USA",32.7478791,-117.1229125
"6700 Linda Vista Rd, San Diego, CA 92111, USA",32.7753197,-117.1736565
"4200 54th St, San Diego, CA 92115, USA",32.7531429,-117.0798772
"5500 Sorrento Valley Blvd, San Diego, CA 92121, USA",32.9131884,-117.1979583
"10700 Camino Ruiz, San Diego, CA 92126, USA",32.9126086,-117.1439595
"900 Pearl St, La Jolla, CA 92037, USA",32.8403936,-117.2736656
"2700 54th St, San Diego, CA 92105, USA",32.7339,-117.0797344
"3400 Madison Ave, San Diego, CA 92116, USA",32.7609796,-117.1206678
"7000 Clairemont Mesa Blvd, San Diego, CA 92111, USA",32.8330384,-117.1642917
"5400 College Ave, San Diego, CA 92115, USA",32.77683409999999,-117.0679904
"4300 University Ave, San Diego, CA 92105, USA",32.7498668,-117.1015222
"3600 Cowley Way, San Diego, CA 92117, USA",32.80582950000001,-117.196186
"6900 La Jolla Blvd, La Jolla, CA 92037, USA",32.8317582,-117.2769298
"3200 Sports Arena Blvd, San Diego, CA 92110, USA",32.7530985,-117.2071541
"4500 34th St, San Diego, CA 92116, USA",32.7590578,-117.1206799
"8400 Aero Dr, San Diego, CA 92123, USA",32.8096914,-117.1458523
"3300 41st St, San Diego, CA 92105, USA",32.7403363,-117.1070384
"1000 S 43rd St, San Diego, CA 92113, USA",32.6958139,-117.1026143
"San Diego, CA, USA",32.715738,-117.1610838
"600 Park Blvd, San Diego, CA 92101, USA",32.7115546,-117.1538823
"5000 34th St, San Diego, CA 92116, USA",32.7690855,-117.1206008
"2200 Chatsworth Blvd, San Diego, CA 92106, USA",32.739397,-117.2278064
"1600 S 32nd St, San Diego, CA 92113, USA",32.6893906,-117.1253939
"11500 Scripps Ranch Blvd, San Diego, CA 92131, USA",32.9251586,-117.0959213
"6100 Lorca Dr, San Diego, CA 92115, USA",32.7580759,-117.0655652
"Clairemont Mesa Blvd, San Diego, CA, USA",32.8327231,-117.146042
"3400 Rosecrans St, San Diego, CA 92110, USA",32.7493542,-117.2065976
"5800 University Ave, San Diego, CA 92115, USA",32.7492955,-117.0729412
"300 Robinson Ave, San Diego, CA 92103, USA",32.7469146,-117.1661213
"W B St, San Diego, CA 92101, USA",32.7177702,-117.1668148
"10700 Scripps Ranch Blvd, San Diego, CA 92131, USA",32.9129953,-117.1101741
"800 W San Ysidro Blvd, San Diego, CA 92173, USA",32.5593419,-117.0615995
"6800 Genesee Ave, San Diego, CA 92122, USA",32.8591613,-117.2067912
"900 14th St, San Diego, CA 92101, USA",32.7147011,-117.1519739
"2700 De Anza Rd, San Diego, CA 92109, USA",32.79746,-117.2158304
"6900 Mira Mesa Blvd, San Diego, CA 92126, USA",32.9076575,-117.1711988
"900 W Laurel St, San Diego, CA 92101, USA",32.7303151,-117.171147
"1600 Chatsworth Blvd, San Diego, CA 92107, USA",32.7316493,-117.2391565
"4400 Clairemont Mesa Blvd, San Diego, CA 92117, USA",32.8344926,-117.197763
"12000 Black Mountain Rd, San Diego, CA 92129, USA",32.9373507,-117.1273545
"8600 New Salem St, San Diego, CA 92126, USA",32.9143472,-117.1387493
"Clairemont Dr, San Diego, CA, USA",32.8117985,-117.2009211
"2800 Mission Blvd, San Diego, CA 92109, USA",32.7635385,-117.2513034
"1200 F St, San Diego, CA 92101, USA",32.713766,-117.1533242
"6500 Mission Gorge Rd, San Diego, CA 92120, USA",32.7908786,-117.097697
"100 Mt Carmel Dr, San Diego, CA 92173, USA",32.5608167,-117.0428966
"3800 35th St, San Diego, CA 92104, USA",32.7478975,-117.118099
"1200 Camino Del Rio N, San Diego, CA 92108, USA",32.7669328,-117.15328
"800 Santa Isabel Dr, San Diego, CA 92114, USA",32.6973944,-117.0795974
"3100 Del Sol Blvd, San Diego, CA 92154, USA",32.5740286,-117.0664938
"2400 Broadway, San Diego, CA 92102, USA",32.7158097,-117.1424884
"3100 46th St, San Diego, CA 92105, USA",32.7384056,-117.0955105
"3600 India St, San Diego, CA 92103, USA",32.7404693,-117.1787675
"800 F St, San Diego, CA 92101, USA",32.7136323,-117.1574094
"1700 Grand Ave, San Diego, CA 92109, USA",32.7983488,-117.2384212
"3700 Camino Del Rio W, San Diego, CA 92110, USA",32.7553743,-117.2049882
"4600 Carmel Mountain Rd, San Diego, CA 92130, USA",32.9211637,-117.2168665
"3500 La Jolla Village Dr, San Diego, CA 92161, USA",32.8718801,-117.2308219
"1500 S Woodman St, San Diego, CA 92114, USA",32.6890031,-117.0465807
"8400 Mira Mesa Blvd, San Diego, CA 92126, USA",32.9130653,-117.1428028
"6200 Sorrento Valley Blvd, San Diego, CA 92121, USA",32.9184616,-117.1864258
"4800 Mission Bay Dr, San Diego, CA 92109, USA",32.80866,-117.2195993
"5000 Monroe Ave, San Diego, CA 92115, USA",32.7589966,-117.0868211
"3000 Mission Blvd, San Diego, CA 92109, USA",32.76783530000001,-117.2510991
"4300 Home Ave, San Diego, CA 92105, USA",32.7260614,-117.1029693
"9200 Miramar Rd, San Diego, CA 92126, USA",32.8944339,-117.1287007
"300 Euclid Ave, San Diego, CA 92114, USA",32.7077266,-117.0850141
"6700 Linda Vista Rd, San Diego, CA 92111, USA",32.7753197,-117.1736565
"9800 Stonecrest Blvd, San Diego, CA 92123, USA",32.8040188,-117.1149195
"2400 Lincoln Ave, San Diego, CA 92104, USA",32.7504016,-117.1386845
"900 F St, San Diego, CA 92101, USA",32.7140545,-117.1558408
"4200 Chamoune Ave, San Diego, CA 92115, USA",32.7531625,-117.0965432
"6000 Lindo Paseo, San Diego, CA 92182, USA",32.7713951,-117.0695964
"9700 Camino Ruiz, San Diego, CA 92121, USA",32.896799,-117.1364256
"11800 Carmel Country Rd, San Diego, CA 92130, USA",32.9451793,-117.2170423
"S 32nd St, San Diego, CA 92136, USA",32.6858558,-117.1254464
"Art St, San Diego, CA 92115, USA",32.7667715,-117.0622412
"4300 Texas St, San Diego, CA 92104, USA",32.755389,-117.1388451
"2700 Chatsworth Blvd, San Diego, CA 92106, USA",32.74363840000001,-117.2205708
"100 Pennsylvania Ave, San Diego, CA 92103, USA",32.7451259,-117.1638919
"2800 El Cajon Blvd, San Diego, CA 92104, USA",32.7557608,-117.1334734
"8400 Jade Coast Dr, San Diego, CA 92126, USA",32.9021287,-117.1424329
"2600 Ulric St, San Diego, CA 92111, USA",32.790533,-117.1723228
"Camino Ruiz, San Diego, CA, USA",32.9127819,-117.1437914
"1000 60th St, San Diego, CA 92114, USA",32.7153236,-117.067982
"4100 National Ave, San Diego, CA 92113, USA",32.6960927,-117.1056827
"1900 Front St, San Diego, CA 92101, USA",32.7250935,-117.1645798
"3800 Fifth Ave, San Diego, CA 92103, USA",32.747174,-117.160726
"2300 30th St, San Diego, CA 92104, USA",32.7296578,-117.1295891
"5900 Tonawanda Dr, San Diego, CA 92139, USA",32.6650412,-117.0586192
"3800 Fairmount Ave, San Diego, CA 92105, USA",32.7479051,-117.1009287
"4700 Seminole Dr, San Diego, CA 92115, USA",32.7620319,-117.0612038
"1500 Euclid Ave, San Diego, CA 92102, USA",32.7207656,-117.0849563
"3000 Aber St, San Diego, CA 92117, USA",32.8294115,-117.2222812
"4100-4198 Mt Alifan Dr, San Diego, CA 92111, USA",32.8174119,-117.1793094
"2600 Grand Ave, San Diego, CA 92109, USA",32.8019819,-117.2217739
"3400 Florence St, San Diego, CA 92113, USA",32.6982497,-117.1202139
"2900 30th St, San Diego, CA 92104, USA",32.7356421,-117.129316
"6400 Parkside Ave, San Diego, CA 92139, USA",32.6697858,-117.0492757
"2800 National Ave, San Diego, CA 92113, USA",32.6959311,-117.1338147
"6200 Rancho Mission Rd, San Diego, CA 92108, USA",32.7854196,-117.1104039
"CA-905, San Diego, CA, USA",32.5643281,-117.079142
"500 S 33rd St, San Diego, CA 92113, USA",32.7012139,-117.1225988
"677 Seventh Ave #412, San Diego, CA 92101, USA",32.7123709,-117.1576329
"8600 New Salem St, San Diego, CA 92126, USA",32.9143472,-117.1387493
"3300 Murphy Canyon Rd, San Diego, CA 92123, USA",32.80357730000001,-117.1137783
"2400 Truxtun Rd, San Diego, CA 92106, USA",32.7363663,-117.2174857
"4100 Fanuel St, San Diego, CA 92109, USA",32.7929671,-117.2446166
"700 47th St, San Diego, CA 92102, USA",32.7115515,-117.0936788
"5000 Beech St, San Diego, CA 92105, USA",32.7207588,-117.1097166
"3515 Fifth Ave, San Diego, CA 92103, USA",32.7418458,-117.1601897
"El Cajon Blvd, San Diego, CA, USA",32.7574564,-117.0825429
"4500 La Jolla Village Dr, San Diego, CA 92122, USA",32.8740937,-117.2094229
"San Diego, CA, USA",32.715738,-117.1610838
"3400 Morena Blvd, San Diego, CA 92117, USA",32.8006479,-117.2108011
"700 Cesar E. Chavez Pkwy, San Diego, CA 92113, USA",32.7031083,-117.14274
"6000 Hughes St, San Diego, CA 92115, USA",32.7459103,-117.0680613
"500 14th St, San Diego, CA 92101, USA",32.71047310000001,-117.1519023
"1400 Island Ave, San Diego, CA 92101, USA",32.7104619,-117.1518868
"700 32nd St, San Diego, CA 92102, USA",32.7127504,-117.1252712
"4400 Fairmount Ave, San Diego, CA 92116, USA",32.7571565,-117.1008321
"9800 Pacific Heights Blvd, San Diego, CA 92121, USA",32.8979976,-117.1889139
"600 F St, San Diego, CA 92101, USA",32.71385530000001,-117.1587941
"2300 Camino Del Rio N, San Diego, CA 92108, USA",32.7720718,-117.1400343
"3200 Duke St, San Diego, CA 92110, USA",32.752876,-117.218727
"3200 Adams Ave, San Diego, CA 92116, USA",32.7636694,-117.1247748
"4600 Imperial Ave, San Diego, CA 92113, USA",32.7044513,-117.0963004
"4800 Santa Monica Ave, San Diego, CA 92107, USA",32.7455974,-117.2468514
"4100 Division St, San Diego, CA 92113, USA",32.6839119,-117.1054802
"2700 Garnet Ave, San Diego, CA 92109, USA",32.8058978,-117.2215277
"4400 Kearny Mesa Rd, San Diego, CA 92111, USA",32.819947,-117.1491185
"100 W Ash St, San Diego, CA 92101, USA",32.719884,-117.16386
"3600 College Ave, San Diego, CA 92115, USA",32.7455758,-117.0589593
"17200 Camino Del Sur, San Diego, CA 92127, USA",33.0127144,-117.1469526
"1500 Garnet Ave, San Diego, CA 92109, USA",32.7996027,-117.2427579
"1300 S 28th St, San Diego, CA 92113, USA",32.6927889,-117.1337946
"1000 Union St, San Diego, CA 92101, USA",32.71577,-117.1656147
"1800 S 32nd St, San Diego, CA 92136, USA",32.6868386,-117.1254898
"4800 University Ave, San Diego, CA 92105, USA",32.7495365,-117.0912188
"6100 Mission Gorge Rd, San Diego, CA 92120, USA",32.7850022,-117.0977572
"10000 Clairemont Mesa Blvd, San Diego, CA 92124, USA",32.8321011,-117.1109421
"2300 Tocayo Ave, San Diego, CA 92154, USA",32.5639355,-117.0841454
"11000 Poway Rd, San Diego, CA 92128, USA",32.9464145,-117.0901949
"600 Robinson Ave, San Diego, CA 92103, USA",32.7470652,-117.1594338
"1900 Gateway Dr, San Diego, CA 92105, USA",32.7256461,-117.108784
"3500 Sports Arena Blvd, San Diego, CA 92110, USA",32.7551821,-117.2123081
"1100 State St, San Diego, CA 92101, USA",32.7167833,-117.1665193
"5400 Clairemont Mesa Blvd, San Diego, CA 92117, USA",32.8344417,-117.1756017
"5400 Kearny Mesa Rd, San Diego, CA 92111, USA",32.8337035,-117.1436401
"4300 Iowa St, San Diego, CA 92104, USA",32.7554089,-117.1264864
"Camino De La Reina, San Diego, CA 92108, USA",32.7681323,-117.1537646
"7200 Skyline Dr, San Diego, CA 92114, USA",32.7033694,-117.0429026
"9000 Aviary Dr, San Diego, CA 92131, USA",32.8986709,-117.1049205
"10100 Friars Rd, San Diego, CA 92124, USA",32.790475,-117.1050483
"San Diego, CA, USA",32.715738,-117.1610838
"1500 Market St, San Diego, CA 92101, USA",32.7115283,-117.1503606
"Oro Vista Rd, San Diego, CA 92154, USA",32.5679384,-117.0774957
"San Diego, CA, USA",32.715738,-117.1610838
"4900 73rd St, San Diego, CA 92115, USA",32.7677515,-117.0404141
"1100 30th St, San Diego, CA 92102, USA",32.7169192,-117.1295853
"4900 Shawline St, San Diego, CA 92111, USA",32.8304017,-117.1638067
"2300 Famosa Blvd, San Diego, CA 92107, USA",32.7447475,-117.2327647
"2400 Balboa Dr, San Diego, CA 92101, USA",32.7303944,-117.1581479
"6900 Lusk Blvd, San Diego, CA 92121, USA",32.9006763,-117.2076479
"900 Heritage Rd, Chula Vista, CA 91911, USA",32.5789537,-116.9975564
"3100 Midway Dr, San Diego, CA 92110, USA",32.7507985,-117.2070916
"1500 Hollister St, San Diego, CA 92154, USA",32.5691411,-117.0841488
"1900 Britannia Blvd, San Diego, CA 92154, USA",32.56226230000001,-116.9799035
"7800 Vista Hill Ave, San Diego, CA 92123, USA",32.794913,-117.1559795
"12600 N Torrey Pines Rd, La Jolla, CA 92037, USA",32.9336768,-117.2606779
"4800 Milton St, San Diego, CA 92110, USA",32.7838381,-117.1986806
"4100 Spillman Dr, San Diego, CA 92105, USA",32.7237423,-117.1066409
"17500 Pomerado Rd, San Diego, CA 92128, USA",33.0302226,-117.0592733
"8200 Mira Mesa Blvd, San Diego, CA 92126, USA",32.9127199,-117.1468059
"9400 Miramar Rd, San Diego, CA 92126, USA",32.8937677,-117.1250727
"3000 Fairmount Ave, San Diego, CA 92105, USA",32.7368949,-117.1009439
"7900 Girard Ave, La Jolla, CA 92037, USA",32.8466156,-117.2747825
"3500 Kurtz St, San Diego, CA 92110, USA",32.7558819,-117.2097418
"1600 Grand Ave, San Diego, CA 92109, USA",32.7979464,-117.2402746
"4300 W Point Loma Blvd, San Diego, CA 92107, USA",32.752873,-117.228646
"4300 Oregon St, San Diego, CA 92104, USA",32.755384,-117.1351374
"3400 Waco St, San Diego, CA 92117, USA",32.8021588,-117.1956395
"10500 W Ocean Air Dr, San Diego, CA 92130, USA",32.9112757,-117.2226333
"5100 Convoy St, San Diego, CA 92111, USA",32.8345304,-117.1528753
"1800 48th St, San Diego, CA 92102, USA",32.7241781,-117.092144
"11500 Shoal Creek Dr, San Diego, CA 92128, USA",32.9710333,-117.084342
"4700 32nd St, San Diego, CA 92116, USA",32.7633881,-117.1249855
"9400 Clairemont Mesa Blvd, San Diego, CA 92123, USA",32.8315131,-117.1266872
"6500 Carmel Valley Rd, San Diego, CA 92130, USA",32.9685364,-117.1776094
"7600 Linda Vista Rd, San Diego, CA 92111, USA",32.800933,-117.1581875
"5400 Regents Rd, San Diego, CA 92117, USA",32.8350429,-117.2162645
"9800 Carroll Canyon Rd, San Diego, CA 92131, USA",32.9043578,-117.1146682
"3300 Mission Blvd, San Diego, CA 92109, USA",32.7743811,-117.2519051
"2800 Midway Dr, San Diego, CA 92110, USA",32.7489011,-117.2037569
"San Diego, CA, USA",32.715738,-117.1610838
"3100 Health Center Dr, San Diego, CA 92123, USA",32.8003034,-117.1553148
"5000 Market St, San Diego, CA 92102, USA",32.7104777,-117.0871196
"1880 Camino de la Reina Park, San Diego, CA 92108, USA",32.771405,-117.144755
"6800 Maury Dr, San Diego, CA 92119, USA",32.806273,-117.0119405
"4400 Berting St, San Diego, CA 92115, USA",32.7579083,-117.0785169
"2600 J St, San Diego, CA 92102, USA",32.7095769,-117.138106
"6800 Skyline Dr, San Diego, CA 92114, USA",32.7023226,-117.0512868
"4200 Bachman Pl, San Diego, CA 92103, USA",32.7538123,-117.1632162
"Clairemont Dr, San Diego, CA, USA",32.8117985,-117.2009211
"4000 Morena Blvd, San Diego, CA 92117, USA",32.8137818,-117.2174667
"7300 Miramar Rd, San Diego, CA 92126, USA",32.8819964,-117.156186
"9800 Reagan Rd, San Diego, CA 92126, USA",32.9120276,-117.149103
"9400 Clairemont Mesa Blvd, San Diego, CA 92123, USA",32.8315131,-117.1266872
"10900 Scripps Ranch Blvd, San Diego, CA 92131, USA",32.9171161,-117.1114226
"W Beech St, San Diego, CA 92101, USA",32.7208864,-117.1673916
"Camino De La Reina, San Diego, CA 92108, USA",32.7681323,-117.1537646
"5700 College Ave, San Diego, CA 92120, USA",32.7835403,-117.0620408
"13400 Rancho Penasquitos Blvd, San Diego, CA 92129, USA",32.9587907,-117.1144307
"4300 Hilltop Dr, San Diego, CA 92102, USA",32.7151119,-117.1026017
"1400 Broadway, San Diego, CA 92101, USA",32.7159732,-117.151728
"5900 Kearny Villa Rd, San Diego, CA 92123, USA",32.8396069,-117.130562
"13300 Camino Del Sur, San Diego, CA 92129, USA",32.96212,-117.1524744
"900 Cardiff St, San Diego, CA 92114, USA",32.715232,-117.0251788
"3500 National Ave, San Diego, CA 92113, USA",32.6962732,-117.1188471
"1700 Euclid Ave, San Diego, CA 92105, USA",32.7229292,-117.0852033
"11100 Westview Pkwy, San Diego, CA 92126, USA",32.9217291,-117.119798
"1600 Rosecrans St, San Diego, CA 92106, USA",32.7274028,-117.2268656
"8100 Whelan Dr, San Diego, CA 92119, USA",32.8062771,-117.020958
"3700 Ocean View Blvd, San Diego, CA 92113, USA",32.7012959,-117.1145316
"4700 Bermuda Ave, San Diego, CA 92107, USA",32.7360994,-117.2524248
"3800 University Ave, San Diego, CA 92105, USA",32.7497041,-117.1118823
"5200 Olvera Ave, San Diego, CA 92114, USA",32.698075,-117.0828932
"Avenida De La Playa, San Diego, CA 92037, USA",32.853757,-117.2537957
"5700 University Ave, San Diego, CA 92105, USA",32.7487142,-117.0740849
"3600 College Ave, San Diego, CA 92115, USA",32.7455758,-117.0589593
"5300 Fairmount Ave, San Diego, CA 92116, USA",32.772977,-117.097315
"Coolwater Dr, San Diego, CA 92114, USA",32.7023316,-117.0290608
"2000 Qualcomm Way, San Diego, CA 92108, USA",32.7695809,-117.1397255
"3900 Swift Ave, San Diego, CA 92104, USA",32.7495319,-117.1195797
"10300 Barnes Canyon Rd, San Diego, CA 92121, USA",32.9001599,-117.1958193
"1100 Coast Blvd, La Jolla, CA 92037, USA",32.850382,-117.2728714
"3900 W Point Loma Blvd, San Diego, CA 92110, USA",32.7548007,-117.220005
"3000 Pershing Dr, San Diego, CA 92102, USA",32.7363661,-117.1351163
"7000 Clairemont Mesa Blvd, San Diego, CA 92111, USA",32.8330384,-117.1642917
"17th St, San Diego, CA 92101, USA",32.7124682,-117.1485737
"4800 T St, San Diego, CA 92113, USA",32.6988025,-117.0923066
"2800 Lytton St, San Diego, CA 92110, USA",32.7431632,-117.2105812
"3400 Sandrock Rd, San Diego, CA 92123, USA",32.8049298,-117.1401559
"5600 Balboa Ave, San Diego, CA 92111, USA",32.8204902,-117.1798474
"10600 Westonhill Dr, San Diego, CA 92126, USA",32.9112709,-117.135601
"3600 Adams Ave, San Diego, CA 92116, USA",32.7633331,-117.1151739
"3700 Fairmount Ave, San Diego, CA 92105, USA",32.7470313,-117.1009399
"8900 Regents Rd, San Diego, CA 92122, USA",32.8693459,-117.2186964
"2400 Coronado Ave, San Diego, CA 92154, USA",32.576529,-117.0815739
"2500 Clairemont Dr, San Diego, CA 92117, USA",32.79106,-117.2050573
"Paseo Del Sur, San Diego, CA 92127, USA",33.0190208,-117.1351281
"9800 Hibert St, San Diego, CA 92131, USA",32.913814,-117.113867
"4100 42nd St, San Diego, CA 92105, USA",32.751485,-117.1044488
"4200 39th St, San Diego, CA 92105, USA",32.7532731,-117.110369
"6800 Paradise Valley Rd, San Diego, CA 92114, USA",32.688185,-117.0489303
"1600 31st St, San Diego, CA 92102, USA",32.7223286,-117.1275107
"4200 Point Loma Ave, San Diego, CA 92107, USA",32.7300687,-117.2446008
"1300 Euclid Ave, San Diego, CA 92105, USA",32.7186938,-117.0850224
"4800 Lamont St, San Diego, CA 92109, USA",32.8056636,-117.2367724
"7700 Balboa Ave, San Diego, CA 92111, USA",32.8218241,-117.1586937
"5400 Kearny Villa Rd, San Diego, CA 92123, USA",32.8324527,-117.1385582
"1400 Washington St, San Diego, CA 92103, USA",32.751651,-117.1506719
"4300 54th St, San Diego, CA 92115, USA",32.75488130000001,-117.0794553
"4200 Clairemont Dr, San Diego, CA 92117, USA",32.8175568,-117.2020771
"18900 Pomerado Rd, San Diego, CA 92128, USA",33.0458533,-117.0655058
"300 Washington St, San Diego, CA 92103, USA",32.7499705,-117.1627768
"11600 Scripps Poway Pkwy, San Diego, CA 92131, USA",32.9345653,-117.0729329
"7700 Eads Ave, La Jolla, CA 92037, USA",32.8428795,-117.2759727
"4100 College Ave, San Diego, CA 92115, USA",32.7520664,-117.0641242
"7600 Balboa Ave, San Diego, CA 92111, USA",32.8223491,-117.1594129
"4600 Bancroft St, San Diego, CA 92116, USA",32.761023,-117.123948
"1400 Fiesta Island Rd, San Diego, CA 92109, USA",32.7801728,-117.2220018
"1600 Camino Del Rio N, San Diego, CA 92108, USA",32.7671158,-117.1488738
"11900 El Camino Real, San Diego, CA 92130, USA",32.9347159,-117.2371576
"900 Magenta St, San Diego, CA 92113, USA",32.6967822,-117.0920097
"900 J St, San Diego, CA 92101, USA",32.7095035,-117.1562551
"5000 Auburn Dr, San Diego, CA 92105, USA",32.7447323,-117.0887997
"655 Sixth Ave #413, San Diego, CA 92101, USA",32.712074,-117.158949
"4100 University Ave, San Diego, CA 92105, USA",32.7497199,-117.1069393
"3700 Central Ave, San Diego, CA 92105, USA",32.7459641,-117.1082056
"4100 Adams Ave, San Diego, CA 92116, USA",32.7634708,-117.1071488
"2600 Columbine St, San Diego, CA 92105, USA",32.7343807,-117.1011125
"400 University Ave, San Diego, CA 92103, USA",32.7482533,-117.1616255
"500 A St, San Diego, CA 92101, USA",32.7188394,-117.1601694
"500 B St, San Diego, CA 92101, USA",32.7178011,-117.1601714
"1600 Palm Ave, San Diego, CA 92154, USA",32.5847123,-117.0996942
"400 15th St, San Diego, CA 92101, USA",32.70943510000001,-117.1503537
"4300 Adams Ave, San Diego, CA 92116, USA",32.7632016,-117.1014558
"4700 El Cajon Blvd, San Diego, CA 92115, USA",32.7559604,-117.0929375
"4100 Convoy St, San Diego, CA 92111, USA",32.8171515,-117.1548985
"5500 Lindo Paseo, San Diego, CA 92115, USA",32.7717382,-117.0762286
"3700 Rosecrans St, San Diego, CA 92110, USA",32.7517781,-117.2044046
"3700 Rosecrans St, San Diego, CA 92110, USA",32.7517781,-117.2044046
"8700 Kerns St, San Diego, CA 92154, USA",32.5515888,-116.9559914
"9400 Friars Rd, San Diego, CA 92116, USA",32.7869076,-117.1197976
"1600 Rosecrans St, San Diego, CA 92106, USA",32.7274028,-117.2268656
"1800 Park Blvd, San Diego, CA 92101, USA",32.724641,-117.1510789
"4100 54th St, San Diego, CA 92115, USA",32.7516723,-117.0797367
"500 15th St, San Diego, CA 92101, USA",32.7105364,-117.1503772
"2000 Camino Del Este, San Diego, CA 92108, USA",32.770943,-117.1442072
"5400 Olive St, San Diego, CA 92105, USA",32.7349337,-117.0795876
"5000 Clairemont Mesa Blvd, San Diego, CA 92117, USA",32.8344957,-117.1826726
"7900 New Salem St, San Diego, CA 92126, USA",32.9161781,-117.1522277
"2300 E Jewett St, San Diego, CA 92111, USA",32.7850047,-117.1718339
"5700 Montezuma Rd, San Diego, CA 92115, USA",32.7709963,-117.073662
"3200 Mission Blvd, San Diego, CA 92109, USA",32.7721368,-117.2513798
"2100 Ocean View Blvd, San Diego, CA 92113, USA",32.7032716,-117.1369831
"Mission Village Dr, San Diego, CA, USA",32.7924329,-117.1226988
"11700 Bernardo Plaza Ct, San Diego, CA 92128, USA",33.0201108,-117.0778542
"1800 Market St, San Diego, CA 92102, USA",32.711541,-117.1482029
"900 56th St, San Diego, CA 92114, USA",32.7150708,-117.0759561
"9800 Mira Mesa Blvd, San Diego, CA 92126, USA",32.9173065,-117.1173768
"300 Euclid Ave, San Diego, CA 92114, USA",32.7077266,-117.0850141
"3600 47th St, San Diego, CA 92105, USA",32.7439857,-117.0941594
"10600 Camino Ruiz, San Diego, CA 92126, USA",32.9101055,-117.1448204
"1300 Froude St, San Diego, CA 92107, USA",32.7328362,-117.2525579
"1200 Camino del Rio S, San Diego, CA 92108, USA",32.765826,-117.150892
"4400 El Cajon Blvd, San Diego, CA 92115, USA",32.7552984,-117.1001757
"5100 Ocean View Hills Pkwy, San Diego, CA 92154, USA",32.5741435,-117.0212133
"6400 Genesee Ave, San Diego, CA 92122, USA",32.8546797,-117.2046772
"19100 San Pasqual Valley Rd, Escondido, CA 92027, USA",33.1021997,-117.0351466
"4300 Mission Bay Dr, San Diego, CA 92109, USA",32.7997637,-117.212887
"4000 Fanuel St, San Diego, CA 92109, USA",32.7913569,-117.2443928
"2800 Perry Rd, San Diego, CA 92106, USA",32.7407791,-117.210278
"1000 B St, San Diego, CA 92101, USA",32.7178212,-117.1556322
"5300 Bonita Dr, San Diego, CA 92114, USA",32.6941166,-117.0802413
"Nimitz Blvd, San Diego, CA, USA",32.7392185,-117.2313564
"3500 Ray St, San Diego, CA 92104, USA",32.7421632,-117.1292622
"Alsacia St, San Diego, CA 92139, USA",32.6835214,-117.0400955
"13000 Old West Ave, San Diego, CA 92129, USA",32.9549413,-117.1348581
"1300 Union St, San Diego, CA 92101, USA",32.7188277,-117.1656397
"5000 El Cajon Blvd, San Diego, CA 92115, USA",32.75681,-117.0868611
"Balboa Ave, San Diego, CA, USA",32.8204597,-117.1670842
"Comerica Bank Building, 600 B St, San Diego, CA 92101, USA",32.718147,-117.1585979
"1300 Columbia St, San Diego, CA 92101, USA",32.7188075,-117.167415
"16700 W Bernardo Dr, San Diego, CA 92127, USA",33.0160196,-117.0823764
"7600 Carroll Rd, San Diego, CA 92121, USA",32.8852803,-117.1575417
"4400 Brighton Ave, San Diego, CA 92107, USA",32.7436186,-117.2374471
"4600 College Ave, San Diego, CA 92115, USA",32.7610058,-117.067071
"400 W A St, San Diego, CA 92101, USA",32.7188086,-117.1665018
"2900 Rosecrans St, San Diego, CA 92106, USA",32.743087,-117.2135539
"750 Camino Del Rio N, San Diego, CA 92108, USA",32.7655035,-117.1572501
"4300 Ingraham St, San Diego, CA 92109, USA",32.7969042,-117.2399557
"1800 Hornblend St, San Diego, CA 92109, USA",32.7996869,-117.2368587
"10700 Westview Pkwy, San Diego, CA 92126, USA",32.9150435,-117.1205904
"30th St, San Diego, CA, USA",32.7347337,-117.1293341
"7400 Cuvier St, La Jolla, CA 92037, USA",32.8378038,-117.2768175
"3300 Murphy Canyon Rd, San Diego, CA 92123, USA",32.80357730000001,-117.1137783
"San Diego, CA, USA",32.715738,-117.1610838
"5000 La Cuenta Dr, San Diego, CA 92124, USA",32.8213957,-117.0977233
"5500 College Ave, San Diego, CA 92120, USA",32.7798911,-117.066095
"4200 Eastgate Mall, La Jolla, CA 92037, USA",32.8770425,-117.2162268
"7800 New Salem St, San Diego, CA 92126, USA",32.9161829,-117.1547713
"7400 New Salem St, San Diego, CA 92126, USA",32.9149316,-117.1623935
"Eastgate Mall, San Diego, CA, USA",32.8805516,-117.2024442
"Eastgate Mall, San Diego, CA, USA",32.8805516,-117.2024442
"11200 Dalby Pl, San Diego, CA 92126, USA",32.925618,-117.1292481
"4400 Genesee Ave, San Diego, CA 92117, USA",32.8231378,-117.184624
"3131 Camino Del Rio N, San Diego, CA 92108, USA",32.7751473,-117.1271202
"3300 Euclid Ave, San Diego, CA 92105, USA",32.7403404,-117.0923188
"8300 Miramar Rd, San Diego, CA 92126, USA",32.8906895,-117.1413753
"4400 Executive Dr, San Diego, CA 92121, USA",32.8751033,-117.2115497
"2000 El Cajon Blvd, San Diego, CA 92104, USA",32.7553645,-117.1437794
"2900 Ocean View Blvd, San Diego, CA 92113, USA",32.70118280000001,-117.1316506
"2700 L St, San Diego, CA 92102, USA",32.7074145,-117.1359621
"9200 Clairemont Mesa Blvd, San Diego, CA 92123, USA",32.8315075,-117.1308512
"2100 Drescher St, San Diego, CA 92111, USA",32.7808215,-117.1732995
"1200 S 40th St, San Diego, CA 92113, USA",32.6939437,-117.1081209
"3400 Midway Dr, San Diego, CA 92110, USA",32.7505314,-117.2120812
"1400 University Ave, San Diego, CA 92103, USA",32.7485687,-117.1512519
"2600 Worden St, San Diego, CA 92110, USA",32.7471978,-117.2273156
"3700 Van Dyke Ave, San Diego, CA 92105, USA",32.7459238,-117.1032749
"2100 Paseo Dorado, La Jolla, CA 92037, USA",32.8525077,-117.2556888
"1000 A St, San Diego, CA 92101, USA",32.7188763,-117.155663
"4000 Taylor St, San Diego, CA 92110, USA",32.7557335,-117.2009277
"7200 El Cajon Blvd, San Diego, CA 92115, USA",32.7691286,-117.0424216
"11900 Carmel Mountain Rd, San Diego, CA 92128, USA",32.9820774,-117.0774241
"5500 Clairemont Mesa Blvd, San Diego, CA 92117, USA",32.8343009,-117.1738308
"Friars Rd, San Diego, CA, USA",32.7747497,-117.1538667
"3300 Rosecrans St, San Diego, CA 92110, USA",32.7478485,-117.2081916
"3800 Wightman St, San Diego, CA 92105, USA",32.7478407,-117.1119216
"500 Ash St, San Diego, CA 92101, USA",32.719898,-117.1601885
"Health Sciences Dr, San Diego, CA 92037, USA",32.8786255,-117.2205775
"2600 Madison Ave, San Diego, CA 92116, USA",32.7610153,-117.1363794
"3600 Altadena Ave, San Diego, CA 92105, USA",32.7442599,-117.0865134
"2200 Britannia Blvd, San Diego, CA 92154, USA",32.5588104,-116.980477
"4600 Friars Rd, San Diego, CA 92109, USA",32.7626655,-117.2071962
"3000 University Ave, San Diego, CA 92104, USA",32.7486701,-117.1300248
"2900 Zoo Dr, San Diego, CA 92101, USA",32.7381335,-117.1491923
"1000 Island Ave, San Diego, CA 92101, USA",32.7105889,-117.1553901
"2900 Main St, San Diego, CA 92113, USA",32.6928144,-117.1316071
"5900 Federal Blvd, San Diego, CA 92105, USA",32.72149960000001,-117.082632
"800 Hollister St, San Diego, CA 92154, USA",32.5820231,-117.0841154
"1700 S 40th St, San Diego, CA 92113, USA",32.688744,-117.108101
"5800 College Ave, San Diego, CA 92120, USA",32.7846739,-117.0622881
"3400 Balboa Ave, San Diego, CA 92117, USA",32.808144,-117.2098557
"8400 Balboa Ave, San Diego, CA 92123, USA",32.8220689,-117.1448484
"12400 Rancho Bernardo Rd, San Diego, CA 92128, USA",33.0187013,-117.0627924
"5000 El Cajon Blvd, San Diego, CA 92115, USA",32.75681,-117.0868611
"CA-78, San Diego, CA, USA",33.0859823,-116.9903166
"3400 Sutherland St, San Diego, CA 92110, USA",32.7416405,-117.1863882
"5000 El Cajon Blvd, San Diego, CA 92115, USA",32.75681,-117.0868611
"900 69th St, San Diego, CA 92114, USA",32.7145208,-117.0493513
"5900 Brooklyn Ave, San Diego, CA 92114, USA",32.71318,-117.0699531
"2100 Greenfield Dr, El Cajon, CA 92019, USA",32.8008756,-116.9030544
"4700 Federal Blvd, San Diego, CA 92102, USA",32.7214693,-117.0935335
"655 Sixth Ave #413, San Diego, CA 92101, USA",32.712074,-117.158949
"1500 Garnet Ave, San Diego, CA 92109, USA",32.7996027,-117.2427579
"1800 David St, San Diego, CA 92111, USA",32.7769832,-117.1702245
"3900 Centre St, San Diego, CA 92103, USA",32.7484168,-117.1485607
"4300 Ohio St, San Diego, CA 92104, USA",32.75541,-117.1289418
"4400 Thorn St, San Diego, CA 92105, USA",32.7402611,-117.0999741
"4500 Morena Blvd, San Diego, CA 92117, USA",32.8204074,-117.2249099
"8400 Genesee Ave, San Diego, CA 92122, USA",32.8673729,-117.2138611
"1900 Froude St, San Diego, CA 92107, USA",32.7424711,-117.2442323
"15500 San Pasqual Valley Rd, Escondido, CA 92027, USA",33.0944601,-117.0004041
"11000 Black Mountain Rd, San Diego, CA 92126, USA",32.9193765,-117.1251147
"2300 Midway Dr, San Diego, CA 92110, USA",32.7453485,-117.1983828
"9600 Clairemont Mesa Blvd, San Diego, CA 92123, USA",32.8332961,-117.1211746
"4900 Ocean View Hills Pkwy, San Diego, CA 92154, USA",32.5827058,-117.0267292
"2300 Modesto St, San Diego, CA 92105, USA",32.7298623,-117.1022345
"1200 B St, San Diego, CA 92101, USA",32.71784,-117.1536914
"5100 Convoy St, San Diego, CA 92111, USA",32.8345304,-117.1528753
"4300 University Ave, San Diego, CA 92105, USA",32.7498668,-117.1015222
"2700 Juan St, San Diego, CA 92110, USA",32.755216,-117.1960751
"9300 Scranton Rd, San Diego, CA 92121, USA",32.892017,-117.201612
"4000 Ingraham St, San Diego, CA 92109, USA",32.792368,-117.2386212
"2900 Upas St, San Diego, CA 92104, USA",32.7412731,-117.1314298
"6300 College Grove Dr, San Diego, CA 92115, USA",32.7365442,-117.0600228
"4900 Saratoga Ave, San Diego, CA 92107, USA",32.7475337,-117.2479093
"7700 Convoy Ct, San Diego, CA 92111, USA",32.8347569,-117.154316
"4400 Altadena Ave, San Diego, CA 92115, USA",32.7569589,-117.0857831
"300 Euclid Ave, San Diego, CA 92114, USA",32.7077266,-117.0850141
"200 47th St, San Diego, CA 92102, USA",32.7059447,-117.0936604
"7100 Miramar Rd, San Diego, CA 92121, USA",32.8795684,-117.1615409
"300 Hill St, San Diego, CA 92173, USA",32.5531544,-117.0401772
"4000 Beyer Blvd, San Diego, CA 92173, USA",32.5584324,-117.0480235
"2400 Torrey Pines Rd, La Jolla, CA 92037, USA",32.850746,-117.2505622
"15900 Camino Del Norte, San Diego, CA 92127, USA",33.000181,-117.0869128
"1600 S 41st St, San Diego, CA 92113, USA",32.6898213,-117.1059827
"6300 Golden Lily Way, San Diego, CA 92130, USA",32.9709858,-117.1855818
"1200 Cushman Ave, San Diego, CA 92110, USA",32.7683587,-117.1989735
"2400 N Harbor Dr, San Diego, CA 92101, USA",32.7275287,-117.1793698
"6100 Decena Dr, San Diego, CA 92120, USA",32.7850188,-117.0970613
"700 C St, San Diego, CA 92101, USA",32.7168149,-117.1583629
"2400 Commercial St, San Diego, CA 92113, USA",32.7051894,-117.1423879
"3400 Copley Ave, San Diego, CA 92116, USA",32.7672542,-117.1206116
"4200 Porte De Palmas, San Diego, CA 92122, USA",32.8609517,-117.2247232
"2300 Fenton Pkwy, San Diego, CA 92108, USA",32.7800723,-117.1303255
"2100 Comstock St, San Diego, CA 92111, USA",32.7829401,-117.1697642
"8200 Gilman Dr, La Jolla, CA 92093, USA",32.8775777,-117.2337461
"3600 Herman Ave, San Diego, CA 92104, USA",32.743805,-117.1260901
"14300 El Camino Real, San Diego, CA 92130, USA",32.9567258,-117.2344134
"6100 Balboa Ave, San Diego, CA 92111, USA",32.8203967,-117.1760625
"4300 El Cajon Blvd, San Diego, CA 92105, USA",32.7554072,-117.1011965
"2900 Zoo Dr, San Diego, CA 92101, USA",32.7381335,-117.1491923
"7200 Mesa College Dr, San Diego, CA 92111, USA",32.802974,-117.1635048
"7500 Girard Ave, La Jolla, CA 92037, USA",32.8405665,-117.2728514
"8500 El Paseo Grande, La Jolla, CA 92037, USA",32.8614623,-117.2548993
"3300 College Ave, San Diego, CA 92115, USA",32.7424402,-117.0513009
"S 29th St, San Diego, CA 92113, USA",32.6975768,-117.1315428
"750 Camino De La Reina, San Diego, CA 92108, USA",32.7679199,-117.157503
"3300 Clairemont Dr, San Diego, CA 92117, USA",32.8007436,-117.1963506
"I-15, San Diego, CA, USA",32.7083834,-117.1201054
"3800 Via De La Valle, Del Mar, CA 92014, USA",32.9828728,-117.2291928
"500 Sea World Dr, San Diego, CA 92109, USA",32.7641067,-117.2262649
"5800 Mt Alifan Dr, San Diego, CA 92111, USA",32.8180884,-117.1776441
"8700 Longwood St, San Diego, CA 92126, USA",32.9038543,-117.1366085
"1300 Garnet Ave, San Diego, CA 92109, USA",32.7986473,-117.2462766
"8700 Friars Rd, San Diego, CA 92108, USA",32.777963,-117.1423941
"3200 Sports Arena Blvd, San Diego, CA 92110, USA",32.7530985,-117.2071541
"4000 Mt Acadia Blvd, San Diego, CA 92111, USA",32.813751,-117.18187
"2100 Ebers St, San Diego, CA 92107, USA",32.7470285,-117.2429689
"54th St, San Diego, CA, USA",32.7475387,-117.0795338
"7600 Mesa College Dr, San Diego, CA 92111, USA",32.8008424,-117.157955
"2000 N Harbor Dr, San Diego, CA 92101, USA",32.7276111,-117.1780927
"5800 El Cajon Blvd, San Diego, CA 92115, USA",32.758807,-117.0726323
"Avenue of Nations, San Diego, CA 92131, USA",32.8970686,-117.0992804
"100 W Market St, San Diego, CA 92101, USA",32.7115284,-117.1637744
"2400 San Diego Ave, San Diego, CA 92110, USA",32.751335,-117.193359
"10300 Thanksgiving Ln, San Diego, CA 92126, USA",32.9040714,-117.1263346
"3100 Hawthorn St, San Diego, CA 92104, USA",32.7275591,-117.1274305
"6300 Osler St, San Diego, CA 92111, USA",32.7915533,-117.1818055
"5200 Imperial Ave, San Diego, CA 92114, USA",32.7058665,-117.0827006
"9400 Mercy Rd, San Diego, CA 92129, USA",32.9406938,-117.1228839
"700 Pacific Beach Dr, San Diego, CA 92109, USA",32.790889,-117.2538142
"200 Cedar St, San Diego, CA 92101, USA",32.7219322,-117.1629417
"1600 W Washington St, San Diego, CA 92101, USA",32.7418289,-117.1833665
"1500 India St, San Diego, CA 92101, USA",32.720899,-117.1682909
"9300 Hillery Dr, San Diego, CA 92126, USA",32.9129073,-117.1205722
"Nimitz Blvd, San Diego, CA, USA",32.7392185,-117.2313564
"12100 Ted Williams Pkwy, San Diego, CA 92128, USA",32.9714928,-117.0713677
"1600 Sunset Cliffs Blvd, San Diego, CA 92107, USA",32.7396786,-117.2519666
"3200 Euclid Ave, San Diego, CA 92105, USA",32.7384787,-117.0922856
"4300 Mission Blvd, San Diego, CA 92109, USA",32.7936796,-117.2545925
"3100 Adams Ave, San Diego, CA 92116, USA",32.7629273,-117.1282692
"3400 Sports Arena Blvd, San Diego, CA 92110, USA",32.7534819,-117.2102829
"3500 Ashford St, San Diego, CA 92111, USA",32.807747,-117.1599389
"3700 Sunset Ln, San Diego, CA 92173, USA",32.5581746,-117.054293
"4700 Cass St, San Diego, CA 92109, USA",32.8001688,-117.2526848
"3700 National Ave, San Diego, CA 92113, USA",32.6962351,-117.1146053
"3200 Euclid Ave, San Diego, CA 92105, USA",32.7384787,-117.0922856
"Cumberland St, San Diego, CA 92139, USA",32.6756802,-117.0631174
"6800 El Cajon Blvd, San Diego, CA 92115, USA",32.7686782,-117.0514763
"3100 Adams Ave, San Diego, CA 92116, USA",32.7629273,-117.1282692
"3900 Alabama St, San Diego, CA 92104, USA",32.7484555,-117.1425145
"5900 El Cajon Blvd, San Diego, CA 92115, USA",32.7599579,-117.0704604
"15th St, San Diego, CA 92101, USA",32.7115283,-117.1503606
"3300 Adams Ave, San Diego, CA 92116, USA",32.7633761,-117.122871
"3100 Torrey Pines Rd, La Jolla, CA 92037, USA",32.8581874,-117.2468546
"4700 El Cajon Blvd, San Diego, CA 92115, USA",32.7559604,-117.0929375
"4600 Mercury St, San Diego, CA 92111, USA",32.823662,-117.1489967
"14500 Seabridge Ln, San Diego, CA 92128, USA",32.9780361,-117.0772874
"700 F St, San Diego, CA 92101, USA",32.7136344,-117.158309
"4600 Talmadge Canyon Row, San Diego, CA 92115, USA",32.7670719,-117.0967608
"1900 Froude St, San Diego, CA 92107, USA",32.7424711,-117.2442323
"4200 Fairmount Ave, San Diego, CA 92105, USA",32.7531982,-117.1008803
"9300 Miramar Rd, San Diego, CA 92126, USA",32.893823,-117.1270269
"3800 Park Blvd, San Diego, CA 92103, USA",32.7475734,-117.1463825
"17400 Matinal Rd, San Diego, CA 92127, USA",33.0309594,-117.0877381
"3800 Division St, San Diego, CA 92113, USA",32.6826087,-117.1100038
"3400 El Cajon Blvd, San Diego, CA 92104, USA",32.7558081,-117.1196273
"10700 Westview Pkwy, San Diego, CA 92126, USA",32.9150435,-117.1205904
"5500 Waring Rd, San Diego, CA 92120, USA",32.7978859,-117.0723206
"3000 Rosecrans St, San Diego, CA 92110, USA",32.7443394,-117.2125141
"5200 Convoy St, San Diego, CA 92111, USA",32.8413855,-117.1503466
"6300 Santo Rd, San Diego, CA 92124, USA",32.8416066,-117.0973557
"1000 Swaner St, San Diego, CA 92114, USA",32.7157948,-117.0711438
"San Diego, CA, USA",32.715738,-117.1610838
"Friars Rd, San Diego, CA, USA",32.7747497,-117.1538667
"900 A St, San Diego, CA 92101, USA",32.7188726,-117.1565529
"580010282 Mission Gorge Rd, Santee, CA 92071, USA",32.8385581,-116.9738616
"2200 54th St, San Diego, CA 92105, USA",32.7288154,-117.080462
"Everts St, San Diego, CA 92109, USA",32.8000513,-117.2487534
"4400 El Cajon Blvd, San Diego, CA 92115, USA",32.7552984,-117.1001757
"3900 Ingraham St, San Diego, CA 92109, USA",32.790626,-117.2383771
"2200 Torrey Pines Rd, La Jolla, CA 92037, USA",32.85057,-117.2542806
"Friars Rd, San Diego, CA, USA",32.7747497,-117.1538667
"2000 Genesee Ave, San Diego, CA 92123, USA",32.7925549,-117.1564632
"3100 Ingelow St, San Diego, CA 92106, USA",32.7274219,-117.2283854
"1900 National Ave, San Diego, CA 92113, USA",32.7006467,-117.1450328
"5100 Santo Rd, San Diego, CA 92124, USA",32.8258174,-117.1040309
"5000 Mission Center Rd, San Diego, CA 92108, USA",32.7681334,-117.153765
"4300 Palm Ave, San Diego, CA 92154, USA",32.5844295,-117.0400658
"4400 University Ave, San Diego, CA 92105, USA",32.7496185,-117.0998189
"8200 Mira Mesa Blvd, San Diego, CA 92126, USA",32.9127199,-117.1468059
"200 Park Blvd, San Diego, CA 92101, USA",32.7067066,-117.1563559
"2700 Genesee Ave, San Diego, CA 92111, USA",32.7915723,-117.1660066
"800 W University Ave, San Diego, CA 92103, USA",32.7489554,-117.1704677
"2100 El Cajon Blvd, San Diego, CA 92104, USA",32.7553693,-117.1425477
"3400 College Ave, San Diego, CA 92115, USA",32.7422586,-117.0516876
"7000 Friars Rd, San Diego, CA 92108, USA",32.7693892,-117.1701881
"2800 State St, San Diego, CA 92103, USA",32.7339184,-117.1708221
"4500 Clairemont Dr, San Diego, CA 92117, USA",32.8244981,-117.2061045
"7500 Linda Vista Rd, San Diego, CA 92111, USA",32.7985432,-117.1595518
"18200 Pomerado Rd, San Diego, CA 92128, USA",33.0428946,-117.0630314
"8600 Pagoda Way, San Diego, CA 92126, USA",32.9064481,-117.138419
"4700 Convoy St, San Diego, CA 92111, USA",32.8267982,-117.1543743
"3300 Ruffin Rd, San Diego, CA 92123, USA",32.8021309,-117.1289309
"3500 Carmel Mountain Rd, San Diego, CA 92130, USA",32.9181723,-117.2339976
"28th St, San Diego, CA, USA",32.7270449,-117.1338375
"2800 University Ave, San Diego, CA 92104, USA",32.748678,-117.1336677
"4000 30th St, San Diego, CA 92104, USA",32.7503433,-117.1301643
"4800 El Cajon Blvd, San Diego, CA 92115, USA",32.7561975,-117.0911422
"10900 Spring Canyon Rd, San Diego, CA 92131, USA",32.9273891,-117.0932899
"7300 Carroll Rd, San Diego, CA 92121, USA",32.8856466,-117.1646268
"San Diego, CA, USA",32.715738,-117.1610838
"3400 N Harbor Dr, San Diego, CA 92101, USA",32.729223,-117.194079
"3600 Main St, San Diego, CA 92113, USA",32.6867165,-117.1167548
"7400 Mesa College Dr, San Diego, CA 92111, USA",32.8023609,-117.1612567
"4500 Pacific Hwy, San Diego, CA 92110, USA",32.7534866,-117.201184
"Charmant Dr, San Diego, CA 92122, USA",32.8618021,-117.2290029
"2400 Reo Dr, San Diego, CA 92139, USA",32.675231,-117.064393
"3500 Ocean View Blvd, San Diego, CA 92113, USA",32.7012632,-117.1186939
"3500 Ocean View Blvd, San Diego, CA 92113, USA",32.7012632,-117.1186939
"3900 Broadway, San Diego, CA 92102, USA",32.715959,-117.1106322
"19200 San Pasqual Rd, San Diego, CA 92130, USA",33.0766575,-117.0350939
"13100 Evening Creek Dr S, San Diego, CA 92128, USA",32.9551965,-117.0986082
"2000 Bayview Heights Dr, San Diego, CA 92105, USA",32.7252145,-117.0760526
"15400 Camino Del Norte, San Diego, CA 92129, USA",32.9974258,-117.0828994
"4700 Guymon St, San Diego, CA 92102, USA",32.7123561,-117.0934757
"1400 S 43rd St, San Diego, CA 92113, USA",32.6917412,-117.102516
"5400 55th St, San Diego, CA 92115, USA",32.7753655,-117.0777807
"4000 Front St, San Diego, CA 92103, USA",32.7499738,-117.1650444
"2300 Qualcomm Way, San Diego, CA 92108, USA",32.7762667,-117.1414635
"3000 Midway Dr, San Diego, CA 92110, USA",32.7497588,-117.2061534
"6000 Mt Alifan Dr, San Diego, CA 92111, USA",32.8197103,-117.1762041
"2400 Camino del Rio S, San Diego, CA 92108, USA",32.7673655,-117.1391358
"9600 Mira Mesa Blvd, San Diego, CA 92126, USA",32.9173323,-117.1190624
"4200 Cass St, San Diego, CA 92109, USA",32.7926,-117.2503606
"4250 Fourth Ave, San Diego, CA 92103, USA",32.7548564,-117.1616766
"3200 Governor Dr, San Diego, CA 92122, USA",32.8518228,-117.2164963
"9000 Miramar Rd, San Diego, CA 92126, USA",32.8937835,-117.1309998
"10700 Westview Pkwy, San Diego, CA 92126, USA",32.9150435,-117.1205904
"3500 Euclid Ave, San Diego, CA 92105, USA",32.7421686,-117.0923407
"3200 North Park Way, San Diego, CA 92104, USA",32.7474153,-117.1250096
"8700 Clairemont Mesa Blvd, San Diego, CA 92123, USA",32.8323196,-117.1378492
"400 W Cedar St, San Diego, CA 92101, USA",32.721947,-117.1665013
"8400 Aquarius Dr, San Diego, CA 92126, USA",32.9306107,-117.1431741
"5400 Waring Rd, San Diego, CA 92120, USA",32.7973458,-117.0760124
"1800 La Media Rd, San Diego, CA 92154, USA",32.5629171,-116.9624473
"3800 Arey Dr, San Diego, CA 92154, USA",32.5791849,-117.0522036
"10300 Snook St, San Diego, CA 92124, USA",32.8121887,-117.1080336
"5900 Fairmount Ave, San Diego, CA 92108, USA",32.7820515,-117.1021
"9700 Scranton Rd, San Diego, CA 92121, USA",32.8987427,-117.2025603
"1800 Palm Ave, San Diego, CA 92154, USA",32.5839078,-117.0948504
"3300 University Ave, San Diego, CA 92104, USA",32.7488763,-117.1220159
"2500 Kettner Blvd, San Diego, CA 92101, USA",32.7300592,-117.171994
"San Diego, CA, USA",32.715738,-117.1610838
"4200 Del Mar Ave, San Diego, CA 92107, USA",32.7333199,-117.241647
"Briarwood Rd, San Diego, CA, USA",32.6832365,-117.0322616
"5900 Redwood St, San Diego, CA 92105, USA",32.7408978,-117.0688825
"1000 Robinson Ave, San Diego, CA 92103, USA",32.746404,-117.1552801
"900 24th St, San Diego, CA 92102, USA",32.7148941,-117.1426586
"8300 St Andrews Ave, San Diego, CA 92154, USA",32.5658595,-116.9656394
"2000 El Cajon Blvd, San Diego, CA 92104, USA",32.7553645,-117.1437794
"1500 Lincoln Ave, San Diego, CA 92103, USA",32.751364,-117.1492782
"2000 Qualcomm Way, San Diego, CA 92108, USA",32.7695809,-117.1397255
"2300 Lincoln Ave, San Diego, CA 92104, USA",32.7503105,-117.1400384
"5200 University Ave, San Diego, CA 92105, USA",32.7491367,-117.0835658
"16300 Pomerado Rd, San Diego, CA 92128, USA",33.0093932,-117.0563601
"4600 El Cajon Blvd, San Diego, CA 92115, USA",32.7561885,-117.0954738
"3400 College Ave, San Diego, CA 92115, USA",32.7422586,-117.0516876
"8800 Gramercy Dr, San Diego, CA 92123, USA",32.8028631,-117.1386757
"6300 Plaza Blvd, San Diego, CA 92114, USA",32.69340510000001,-117.0630167
"San Diego, CA, USA",32.715738,-117.1610838
"12400 Springbrook Dr, San Diego, CA 92128, USA",32.9432159,-117.0840888
"4800 La Jolla Village Dr, San Diego, CA 92121, USA",32.8750233,-117.2009194
"9400 Friars Rd, San Diego, CA 92116, USA",32.7869076,-117.1197976
"6300 University Ave, San Diego, CA 92115, USA",32.7542686,-117.0599499
"600 13th St, San Diego, CA 92101, USA",32.7115524,-117.1528174
"4100 Bonillo Dr, San Diego, CA 92115, USA",32.7531334,-117.059542
"13400 San Pasqual Rd, Escondido, CA 92025, USA",33.0715469,-117.0463102
"2300 Via Siena, La Jolla, CA 92037, USA",32.8439095,-117.2543185
"San Diego, CA, USA",32.715738,-117.1610838
"4000 University Ave, San Diego, CA 92105, USA",32.7497451,-117.1093008
"4900 Voltaire St, San Diego, CA 92107, USA",32.7509812,-117.2448883
"2200 Bacon St, San Diego, CA 92107, USA",32.7520474,-117.246619
"1900 Palm Ave, San Diego, CA 92154, USA",32.5839055,-117.0912115
"9800 Aero Dr, San Diego, CA 92123, USA",32.8092986,-117.1176775
"4800 Niagara Ave, San Diego, CA 92107, USA",32.7438934,-117.2483275
"8800 Villa La Jolla Dr, La Jolla, CA 92037, USA",32.868604,-117.2341257
"San Diego, CA, USA",32.715738,-117.1610838
"2700 Grand Ave, San Diego, CA 92109, USA",32.8023168,-117.2200223
"4000 Convoy St, San Diego, CA 92111, USA",32.8159478,-117.1546666
"700 E San Ysidro Blvd, San Diego, CA 92173, USA",32.5452999,-117.030612
"6900 Alvarado Rd, San Diego, CA 92120, USA",32.775904,-117.0508052
"2400 Hotel Cir N, San Diego, CA 92108, USA",32.7600764,-117.1859792
"13700 Tradition St, San Diego, CA 92128, USA",32.9691896,-117.0727595
"6500 Riverdale St, San Diego, CA 92120, USA",32.7907276,-117.0995973
"4100 43rd St, San Diego, CA 92105, USA",32.7514371,-117.1019911
"7100 Miramar Rd, San Diego, CA 92121, USA",32.8795684,-117.1615409
"Parkdale Ave, San Diego, CA 92126, USA",32.910168,-117.155293
"2300 Sunset Cliffs Blvd, San Diego, CA 92107, USA",32.7508617,-117.242362
"5600 Mission Center Rd, San Diego, CA 92108, USA",32.77536,-117.1544024
"13000 N Torrey Pines Rd, La Jolla, CA 92037, USA",32.9340345,-117.2604269
"2400 Northside Dr, San Diego, CA 92108, USA",32.783203,-117.1270658
"4400 Idaho St, San Diego, CA 92116, USA",32.757294,-117.1338942
"4900 Cass St, San Diego, CA 92109, USA",32.8039024,-117.2538291
"4400 University Ave, San Diego, CA 92105, USA",32.7496185,-117.0998189
"1200 E Mission Bay Dr, San Diego, CA 92110, USA",32.7672441,-117.2088033
"4700 Convoy St, San Diego, CA 92111, USA",32.8267982,-117.1543743
"1600 F St, San Diego, CA 92101, USA",32.7136686,-117.1494757
"7700 Clairemont Mesa Blvd, San Diego, CA 92111, USA",32.8328124,-117.1547158
"5000 Waring Rd, San Diego, CA 92120, USA",32.7889882,-117.0847984
"4200 W Point Loma Blvd, San Diego, CA 92110, USA",32.7528084,-117.2265427
"2500 Felspar St, San Diego, CA 92109, USA",32.8058979,-117.2240608
"6400 Genesee Ave, San Diego, CA 92122, USA",32.8546797,-117.2046772
"4100 University Ave, San Diego, CA 92105, USA",32.7497199,-117.1069393
"16000 San Pasqual Valley Rd, Escondido, CA 92027, USA",33.0861594,-116.9906809
"1900 Grand Ave, San Diego, CA 92109, USA",32.7991671,-117.2347736
"2500 Old Quarry Rd, San Diego, CA 92108, USA",32.7853902,-117.1293627
"2700 Genesee Ave, San Diego, CA 92111, USA",32.7915723,-117.1660066
"4000 Winona Ave, San Diego, CA 92105, USA",32.7495709,-117.0879932
"10600 Cassowary Ct, San Diego, CA 92131, USA",32.9321231,-117.0989541
"2400 Willow St, San Diego, CA 92106, USA",32.7388543,-117.2215925
"2600 Main St, San Diego, CA 92113, USA",32.6930987,-117.1380647
"920010282 Mission Gorge Rd, Santee, CA 92071, USA",32.8385572,-116.9736899
"3200 Governor Dr, San Diego, CA 92122, USA",32.8518228,-117.2164963
"4600 Palm Ave, San Diego, CA 92154, USA",32.5842651,-117.0354877
"4200 Mason St, San Diego, CA 92110, USA",32.756185,-117.195236
"2900 Children's Way, San Diego, CA 92123, USA",32.7962844,-117.15074
"1400 Sunset Cliffs Blvd, San Diego, CA 92107, USA",32.7363049,-117.2548632
"3500 Fifth Ave, San Diego, CA 92103, USA",32.7416864,-117.1606133
"3800 36th St, San Diego, CA 92104, USA",32.7478777,-117.115609
"8200 Sabre St, San Diego, CA 92114, USA",32.7120596,-117.0296479
"13000 Signature Pt, San Diego, CA 92130, USA",32.9554007,-117.2321789
"13200 Mango Dr, Del Mar, CA 92014, USA",32.9405712,-117.243037
"8800 Paseo De La Fuente Norte, San Diego, CA 92154, USA",32.556229,-116.9530131
"300 Robinson Ave, San Diego, CA 92103, USA",32.7469146,-117.1661213
"7600 Carroll Rd, San Diego, CA 92121, USA",32.8852803,-117.1575417
"10300 Scripps Poway Pkwy, San Diego, CA 92131, USA",32.9377048,-117.1056724
"400 S Meadowbrook Dr, San Diego, CA 92114, USA",32.6992659,-117.0275506
"4900 Voltaire St, San Diego, CA 92107, USA",32.7509812,-117.2448883
"6500 Arundel Pl, San Diego, CA 92117, USA",32.8254994,-117.1681346
"California St, San Diego, CA, USA",32.7391204,-117.1798099
"300 S Vista Ave, San Diego, CA 92173, USA",32.5586029,-117.0494105
"5800 Division St, San Diego, CA 92114, USA",32.6927555,-117.0734655
"3600 Pringle St, San Diego, CA 92110, USA",32.7446907,-117.182648
"7300 Friars Rd, San Diego, CA 92108, USA",32.7717763,-117.1609221
"4100 National Ave, San Diego, CA 92113, USA",32.6960927,-117.1056827
"4200 Genesee Ave, San Diego, CA 92117, USA",32.8193885,-117.182037
"4700 Niagara Ave, San Diego, CA 92107, USA",32.7428353,-117.24661
"1400 W Mission Bay Dr, San Diego, CA 92109, USA",32.76623190000001,-117.2397854
"3000 Imperial Ave, San Diego, CA 92102, USA",32.7064517,-117.1294743
"500 32nd St, San Diego, CA 92102, USA",32.7106188,-117.1252485
"2800 Midway Dr, San Diego, CA 92110, USA",32.7489011,-117.2037569
"3200 National Ave, San Diego, CA 92113, USA",32.6959781,-117.1253134
"4900 University Ave, San Diego, CA 92105, USA",32.7497739,-117.0889524
"1800 Sunset Cliffs Blvd, San Diego, CA 92107, USA",32.7430525,-117.2490455
"1000 W Mission Bay Dr, San Diego, CA 92109, USA",32.772225,-117.2466607
"2800 S Woodman St, San Diego, CA 92139, USA",32.6758407,-117.0403652
"700 Dennery Rd, San Diego, CA 92154, USA",32.5808335,-117.033751
"3300 Adams Ave, San Diego, CA 92116, USA",32.7633761,-117.122871
"3400 Ocean View Blvd, San Diego, CA 92113, USA",32.7012276,-117.1218728
"9300 Paseo Montalban, San Diego, CA 92129, USA",32.9595262,-117.1262458
"3800 Shiloh Rd, San Diego, CA 92105, USA",32.7473076,-117.0815255
"3600 Pringle St, San Diego, CA 92110, USA",32.7446907,-117.182648
"200 W Ivy St, San Diego, CA 92101, USA",32.7282232,-117.1648195
